Site,Location,Criteria,Areaha (acre),Year_num,lat,lon,country,site_page_name,site_page_link
Aapravasi Ghat,"MauritiusPort Louis District, Mauritius20°09′31″S 57°30′11″E﻿ / ﻿20.158611°S 57.503056°E﻿ / -20.158611; 57.503056﻿ (Aapravasi Ghat)",Cultural:MauritiusAap(vi),7003160000000000000♠0.16 (0.40),2006,20.158611297607422,57.503055572509766,NA,/wiki/Aapravasi_Ghat,https://en.wikipedia.org/wiki/Aapravasi_Ghat
Abu Mena,"EgyAbusir, Egypt30°50′28″N 29°39′47″E﻿ / ﻿30.84098°N 29.663117°E﻿ / 30.84098; 29.663117﻿ (Abu Mena)",Cultural:EgyAbu(iv),7006182000000000000♠182 (450),2006,30.841110229492188,29.663055419921875,Egypt,/wiki/Abu_Mena,https://en.wikipedia.org/wiki/Abu_Mena
Aksum,"EthTigray Region, Ethiopia14°07′49″N 38°43′07″E﻿ / ﻿14.130190°N 38.718605°E﻿ / 14.130190; 38.718605﻿ (Aksum)","Cultural:EthAks(i), (iv)",—,2006,14.130277633666992,38.71861267089844,Ethiopia,/wiki/Aksum,https://en.wikipedia.org/wiki/Aksum
Al Qal'a of Beni Hammad,"AlgMaadid, Algeria35°49′06″N 4°47′13″E﻿ / ﻿35.818440°N 4.786840°E﻿ / 35.818440; 4.786840﻿ (Al Qal'a of Beni Hammad)",Cultural:AlgAlq(iii),7006150000000000000♠150 (370),2006,35.81833267211914,4.786944389343262,Algeria,NA,https://en.wikipedia.orgNA
Amphitheatre of El Jem,"TunEl Djem, Tunisia35°17′47″N 10°42′25″E﻿ / ﻿35.296390°N 10.706940°E﻿ / 35.296390; 10.706940﻿ (Amphitheatre of El Jem)","Cultural:TunEld(iv), (vi)",—,2006,35.296390533447266,10.706944465637207,Tunisia,/wiki/Amphitheatre_of_El_Jem,https://en.wikipedia.org/wiki/Amphitheatre_of_El_Jem
"Ancient Ksour of Ouadane, Chinguetti, Tichitt and Oualata","MauritaniaChinguetti,Ouadane,Oualata,and Tichitt, Mauritania20°55′44″N 11°37′25″W﻿ / ﻿20.928890°N 11.623610°W﻿ / 20.928890; -11.623610﻿ (Ancient Ksour of Ouadane, Chinguetti, Tichitt and Oualata)","Cultural:MauAnc(iii), (iv), (v)",—,2006,20.92888832092285,11.623611450195312,Mauritania,NA,https://en.wikipedia.orgNA
Ancient Thebes with its Necropolis,"EgyQena, Egypt25°44′00″N 32°36′00″E﻿ / ﻿25.733330°N 32.600000°E﻿ / 25.733330; 32.600000﻿ (Ancient Thebes with its Necropolis)","Cultural:EgyAnc(i), (iii), (vi)","7007739000000000000♠7,390 (18,300)",2006,25.733333587646484,32.599998474121094,Egypt,NA,https://en.wikipedia.orgNA
Archaeological Site of Carthage,"TunTunis, Tunisia36°51′10″N 10°19′24″E﻿ / ﻿36.852780°N 10.323330°E﻿ / 36.852780; 10.323330﻿ (Archaeological Site of Carthage)","Cultural:TunArc(ii), (iii), (vi)",—,2006,36.852779388427734,10.323333740234375,Tunisia,/wiki/Archaeological_Site_of_Carthage,https://en.wikipedia.org/wiki/Archaeological_Site_of_Carthage
Archaeological Site of Cyrene,"LibJebel Akhdar, Libya32°49′30″N 21°51′30″E﻿ / ﻿32.825000°N 21.858330°E﻿ / 32.825000; 21.858330﻿ (Archaeological Site of Cyrene)","Cultural:LibArc(ii), (iii), (vi)",—,2006,32.82500076293945,21.858333587646484,Libya,"/wiki/Cyrene,_Libya","https://en.wikipedia.org/wiki/Cyrene,_Libya"
Archaeological Site of Leptis Magna,"LibKhoms, Libya32°38′18″N 14°17′35″E﻿ / ﻿32.638330°N 14.293060°E﻿ / 32.638330; 14.293060﻿ (Archaeological Site of Leptis Magna)","Cultural:LibArc(i), (ii), (iii)",—,2006,32.63833236694336,14.293055534362793,Libya,/wiki/Leptis_Magna,https://en.wikipedia.org/wiki/Leptis_Magna
Archaeological Site of Sabratha,"LibSabratha, Libya32°48′19″N 12°29′06″E﻿ / ﻿32.805280°N 12.485000°E﻿ / 32.805280; 12.485000﻿ (Archaeological Site of Sabratha)",Cultural:LibArc(iii),—,2006,32.80527877807617,12.484999656677246,Libya,/wiki/Sabratha,https://en.wikipedia.org/wiki/Sabratha
Archaeological Site of Volubilis,"MorMeknes, Morocco34°04′26″N 5°33′25″W﻿ / ﻿34.073890°N 5.556940°W﻿ / 34.073890; -5.556940﻿ (Archaeological Site of Volubilis)","Cultural:MorArc(ii), (iii), (iv), (vi)",7005420000000000000♠42 (100),2006,34.073890686035156,5.556944370269775,Morocco,/wiki/Volubilis,https://en.wikipedia.org/wiki/Volubilis
Archaeological Sites of the Island of Meroe,"SudMeroë, Sudan16°56′00″N 33°43′00″E﻿ / ﻿16.933333°N 33.716667°E﻿ / 16.933333; 33.716667﻿ (Archaeological Sites of the Island of Meroe)","Cultural:SudArc(ii), (iii), (iv), (v)","7007235700000000000♠2,357 (5,820)",2006,16.933332443237305,33.71666717529297,Sudan,/wiki/Mero%C3%AB,https://en.wikipedia.org/wiki/Mero%C3%AB
Asante Traditional Buildings,"GhaKumasi, Ghana6°24′04″N 1°37′33″W﻿ / ﻿6.401111°N 1.625833°W﻿ / 6.401111; -1.625833﻿ (Asante Traditional Buildings)",Cultural:GhaAsa(v),—,2006,6.401111125946045,1.6258333921432495,Ghana,/wiki/Asante_Traditional_Buildings,https://en.wikipedia.org/wiki/Asante_Traditional_Buildings
Asmara,"EriMaekel, Eritrea15°20′07″N 38°56′09″E﻿ / ﻿15.335277777777778°N 38.935833333333335°E﻿ / 15.335277777777778; 38.935833333333335﻿ (Asmara)",Cultural:EriAsm(ii)(iv),"7006481000000000000♠481 (1,190)",2006,15.335277557373047,38.93583297729492,Eritrea,/wiki/Asmara,https://en.wikipedia.org/wiki/Asmara
"Bassari Country: Bassari, Fula and Bedik Cultural Landscapes","Sen Senegal12°35′36″N 12°50′45″W﻿ / ﻿12.593333°N 12.845833°W﻿ / 12.593333; -12.845833﻿ (Bassari Country: Bassari, Fula and Bedik Cultural Landscapes)","Cultural:SenBas(iii), (v), (vi)","7008503090000000000♠50,309 (124,320)",2006,12.59333324432373,12.845833778381348,Senegal,NA,https://en.wikipedia.orgNA
Chongoni Rock-Art Area,"MalawiDedza District, Malawi14°17′36″S 34°16′45″E﻿ / ﻿14.293333°S 34.279167°E﻿ / -14.293333; 34.279167﻿ (Chongoni Rock-Art Area)","Cultural:MalawiCho(iii), (vi)","7008126400000000000♠12,640 (31,200)",2006,14.293333053588867,34.27916717529297,Malawi,/wiki/Chongoni_Rock-Art_Area,https://en.wikipedia.org/wiki/Chongoni_Rock-Art_Area
"Cidade Velha, Historic Centre of Ribeira Grande","CapeRibeira Grande, Cape Verde14°54′55″N 23°36′19″W﻿ / ﻿14.915139°N 23.605194°W﻿ / 14.915139; -23.605194﻿ (Cidade Velha, Historic Centre of Ribeira Grande)","Cultural:CapeCid(ii), (iii), (vi)",7006209000000000000♠209 (520),2006,14.915277481079102,23.60527801513672,NA,/wiki/Cidade_Velha,https://en.wikipedia.org/wiki/Cidade_Velha
Djémila,"AlgSétif, Algeria36°19′14″N 5°44′12″E﻿ / ﻿36.320560°N 5.736670°E﻿ / 36.320560; 5.736670﻿ (Djémila)","Cultural:AlgDje(iii), (iv)",7005300000000000000♠30 (74),2006,36.320556640625,5.736666679382324,Algeria,/wiki/Dj%C3%A9mila,https://en.wikipedia.org/wiki/Dj%C3%A9mila
Dougga / Thugga,"TunBeBéja Governorate, Tunisia36°25′25″N 9°13′13″E﻿ / ﻿36.423610°N 9.220280°E﻿ / 36.423610; 9.220280﻿ (Dougga/Thugga)","Cultural:TunDou(ii), (iii)",7005700000000000000♠70 (170),2006,36.42361068725586,9.220277786254883,Tunisia,/wiki/Dougga,https://en.wikipedia.org/wiki/Dougga
"Fasil Ghebbi, Gondar Region","EthAmhara Region, Ethiopia12°36′25″N 37°27′58″E﻿ / ﻿12.606920°N 37.466170°E﻿ / 12.606920; 37.466170﻿ (Fasil Ghebbi, Gondar Region)","Cultural:EthFas(ii), (iii)",—,2006,12.60694408416748,37.46611022949219,Ethiopia,/wiki/Fasil_Ghebbi,https://en.wikipedia.org/wiki/Fasil_Ghebbi
"Fort Jesus, Mombasa","KenMombasa, Kenya4°03′46″S 39°40′46″E﻿ / ﻿4.062778°S 39.679444°E﻿ / -4.062778; 39.679444﻿ (Fort Jesus, Mombasa)","Cultural:KenLak(i), (iv)","7009161485000000000♠161,485 (399,040)",2006,4.062777996063232,39.679443359375,Kenya,/wiki/Fort_Jesus,https://en.wikipedia.org/wiki/Fort_Jesus
"Forts and Castles, Volta, Greater Accra, Central and Western Regions","GhaCentral Region,Greater Accra,Volta Region,and Western Region, Ghana5°14′51″N 0°47′07″W﻿ / ﻿5.247398°N 0.785167°W﻿ / 5.247398; -0.785167﻿ (Forts and Castles, Volta, Greater Accra, Central and Western Regions)",Cultural:GhaFor(vi),—,2006,5.247499942779541,0.785277783870697,Ghana,"/wiki/Forts_and_Castles,_Volta,_Greater_Accra,_Central_and_Western_Regions","https://en.wikipedia.org/wiki/Forts_and_Castles,_Volta,_Greater_Accra,_Central_and_Western_Regions"
Fossil Hominid Sites of South Africa[c],"SouthGauteng,Limpopo,and North West, South Africa24°09′31″S 29°10′37″E﻿ / ﻿24.158610°S 29.176940°E﻿ / -24.158610; 29.176940﻿ (Fossil Hominid Sites of South Africa)","Cultural:SouthCra(iii), (vi)",—,2006,24.158611297607422,29.176944732666016,South Africa,NA,https://en.wikipedia.orgNA
Gebel Barkal and the Sites of the Napatan Region,"SudMeroë, Sudan18°32′00″N 31°49′00″E﻿ / ﻿18.533333°N 31.816667°E﻿ / 18.533333; 31.816667﻿ (Gebel Barkal and the Sites of the Napatan Region)","Cultural:SudGeb(i), (ii),(iii), (iv), (vi)",7006183000000000000♠183 (450),2006,18.53333282470703,31.816667556762695,Sudan,/wiki/Gebel_Barkal_and_the_Sites_of_the_Napatan_Region,https://en.wikipedia.org/wiki/Gebel_Barkal_and_the_Sites_of_the_Napatan_Region
Great Zimbabwe National Monument,"ZimMasvingo Province, Zimbabwe20°17′00″S 30°56′00″E﻿ / ﻿20.283333°S 30.933333°E﻿ / -20.283333; 30.933333﻿ (Great Zimbabwe National Monument)","Cultural:ZimGre(i), (iii), (vi)","7006722000000000000♠722 (1,780)",2006,20.28333282470703,30.933332443237305,Zimbabwe,/wiki/Great_Zimbabwe,https://en.wikipedia.org/wiki/Great_Zimbabwe
"Harar Jugol, the Fortified Historic Town","EthHarari Region, Ethiopia9°18′32″N 42°08′16″E﻿ / ﻿9.308889°N 42.137778°E﻿ / 9.308889; 42.137778﻿ (Harar Jugol, the Fortified Historic Town)","Cultural:EthHar(ii), (iii),(iv), (v)",7005480000000000000♠48 (120),2006,9.30888843536377,42.137779235839844,Ethiopia,"/wiki/Harar_Jugol,_the_Fortified_Historic_Town","https://en.wikipedia.org/wiki/Harar_Jugol,_the_Fortified_Historic_Town"
Historic Cairo,"EgyCairo, Egypt30°03′00″N 31°15′40″E﻿ / ﻿30.050000°N 31.261110°E﻿ / 30.050000; 31.261110﻿ (Historic Cairo)","Cultural:EgyHis(i), (v), (vi)","7006524000000000000♠524 (1,290)",2006,30.049999237060547,31.261110305786133,Egypt,/wiki/Islamic_Cairo,https://en.wikipedia.org/wiki/Islamic_Cairo
Historic Centre of Agadez,"Niger1Tchirozerine Department, Niger16°58′25″N 7°59′29″E﻿ / ﻿16.973611°N 7.991389°E﻿ / 16.973611; 7.991389﻿ (Historic Centre of Agadez)","Cultural:Niger1Aga(ii), (iii)",7005780000000000000♠78 (190),2006,1,16.97361183166504,Niger,/wiki/Agadez,https://en.wikipedia.org/wiki/Agadez
Historic City of Meknes,"MorMeknes, Morocco33°53′00″N 5°33′30″W﻿ / ﻿33.883330°N 5.558330°W﻿ / 33.883330; -5.558330﻿ (Historic City of Meknes)",Cultural:MorHis(iv),—,2006,33.88333511352539,5.558333396911621,Morocco,/wiki/Meknes,https://en.wikipedia.org/wiki/Meknes
Historic Town of Grand-Bassam,"CoteSud-Comoé, Côte d'Ivoire5°11′45″N 3°44′11″W﻿ / ﻿5.195914°N 3.736369°W﻿ / 5.195914; -3.736369﻿ (Historic Town of Grand-Bassam)","Cultural:CotSud(iii), (iv)",7006110000000000000♠110 (270),2006,5.195833206176758,3.736388921737671,NA,/wiki/Grand-Bassam,https://en.wikipedia.org/wiki/Grand-Bassam
Island of Gorée,"SenDakar Region, Senegal14°40′02″N 17°24′03″W﻿ / ﻿14.667220°N 17.400830°W﻿ / 14.667220; -17.400830﻿ (Island of Gorée)",Cultural:SenIslandofGor(vi),—,2006,14.667222023010254,17.400833129882812,Senegal,/wiki/Island_of_Gor%C3%A9e,https://en.wikipedia.org/wiki/Island_of_Gor%C3%A9e
Island of Mozambique,"MozNampula, Mozambique15°02′03″S 40°44′09″E﻿ / ﻿15.034170°S 40.735830°E﻿ / -15.034170; 40.735830﻿ (Island of Mozambique)","Cultural:MozIsl(iv), (vi)",—,2006,15.03416633605957,40.73583221435547,Mozambique,/wiki/Island_of_Mozambique,https://en.wikipedia.org/wiki/Island_of_Mozambique
Island of Saint-Louis,"SenSaint-Louis Region, Senegal16°01′40″N 16°30′16″W﻿ / ﻿16.027780°N 16.504440°W﻿ / 16.027780; -16.504440﻿ (Island of Saint-Louis)","Cultural:SenIslandofSai(ii), (iv)",—,2006,16.02777862548828,16.504444122314453,Senegal,"/wiki/Saint-Louis,_Senegal","https://en.wikipedia.org/wiki/Saint-Louis,_Senegal"
Kairouan,"TunKairouan Governorate, Tunisia35°40′54″N 10°06′14″E﻿ / ﻿35.681670°N 10.103890°E﻿ / 35.681670; 10.103890﻿ (Kairouan)","Cultural:TunKai(i), (ii), (iii), (v), (vi)",—,2006,35.68166732788086,10.103888511657715,Tunisia,/wiki/Kairouan,https://en.wikipedia.org/wiki/Kairouan
Kasbah of Algiers,"AlgAlgiers, Algeria36°47′00″N 3°03′37″E﻿ / ﻿36.783330°N 3.060280°E﻿ / 36.783330; 3.060280﻿ (Kasbah of Algiers)","Cultural:AlgKas(ii), (v)",7005600000000000000♠60 (150),2006,36.78333282470703,3.0602777004241943,Algeria,/wiki/Kasbah_of_Algiers,https://en.wikipedia.org/wiki/Kasbah_of_Algiers
Khami Ruins National Monument,"ZimMatabeleland, Zimbabwe20°09′30″S 28°22′36″E﻿ / ﻿20.158333°S 28.376667°E﻿ / -20.158333; 28.376667﻿ (Khami Ruins National Monument)","Cultural:ZimKha(iii), (iv)",—,2006,20.15833282470703,28.376667022705078,Zimbabwe,/wiki/Khami_Ruins_National_Monument,https://en.wikipedia.org/wiki/Khami_Ruins_National_Monument
ǂKhomani Cultural Landscape,"ZafNorthern Cape, South Africa25°41′15″S 20°22′29″E﻿ / ﻿25.68761111111111°S 20.374583333333334°E﻿ / -25.68761111111111; 20.374583333333334﻿ (ǂKhomani Cultural Landscape)","Cultural:ZimKha(iii), (iv), (v), (vi)","7009959100000000000♠959,100 (2,370,000)",2006,25.6875,20.37472152709961,South Africa,NA,https://en.wikipedia.orgNA
Kondoa Rock-Art Sites,"TanKondoa District, Tanzania, United Republic of4°43′28″S 35°50′02″E﻿ / ﻿4.724444°S 35.833889°E﻿ / -4.724444; 35.833889﻿ (Kondoa Rock-Art Sites)","Cultural:TanKon(iii), (vi)","7009233600000000000♠233,600 (577,000)",2006,4.724444389343262,35.83388900756836,Tanzania,/wiki/Kondoa_Rock-Art_Sites,https://en.wikipedia.org/wiki/Kondoa_Rock-Art_Sites
Konso Cultural Landscape,"EthSouthern Nations, Nationalities, and People's Region, Ethiopia5°18′N 37°24′E﻿ / ﻿5.3°N 37.4°E﻿ / 5.3; 37.4﻿ (Konso Cultural Landscape)","Cultural:EthKon(iii), (v)","7008140000000000000♠14,000 (35,000)",2006,5.300000190734863,37.400001525878906,Ethiopia,/wiki/Konso,https://en.wikipedia.org/wiki/Konso
"Koutammakou, the Land of the Batammariba","TogKara Region, Togo10°04′00″N 1°08′00″E﻿ / ﻿10.066667°N 1.133333°E﻿ / 10.066667; 1.133333﻿ (Koutammakou, the Land of the Batammariba)","Cultural:TogKou(v), (vi)","7008500000000000000♠50,000 (120,000)",2006,10.066666603088379,1.1333333253860474,Togo,"/wiki/Koutammakou,_the_Land_of_the_Batammariba","https://en.wikipedia.org/wiki/Koutammakou,_the_Land_of_the_Batammariba"
Ksar of Ait-Ben-Haddou,"MorAït Benhaddou, Morocco31°02′50″N 7°07′44″W﻿ / ﻿31.047220°N 7.128890°W﻿ / 31.047220; -7.128890﻿ (Ksar of Ait-Ben-Haddou)","Cultural:MorKsa(iv), (v)",7004300000000000000♠3 (7.4),2006,31.047222137451172,7.128889083862305,Morocco,/wiki/Ksar_of_Ait-Ben-Haddou,https://en.wikipedia.org/wiki/Ksar_of_Ait-Ben-Haddou
Kunta Kinteh Island and Related Sites[d],"GambBanjul,Lower Niumi,and Upper Niumi, Gambia13°18′58″N 16°21′26″W﻿ / ﻿13.316166°N 16.357194°W﻿ / 13.316166; -16.357194﻿ (Kunta Kinteh Island and Related Sites)","Cultural:GamJam(iii), (vi)",7004800000000000000♠8 (20),2006,13.31611156463623,16.357221603393555,Gambia,NA,https://en.wikipedia.orgNA
Lamu Old Town,"KenLamu, Kenya2°16′05″S 40°54′07″E﻿ / ﻿2.268°S 40.902°E﻿ / -2.268; 40.902﻿ (Lamu Old Town)","Cultural:KenLam(ii), (iv), (vi)",7005160000000000000♠16 (40),2006,2.2680554389953613,40.90194320678711,Kenya,/wiki/Lamu_Old_Town,https://en.wikipedia.org/wiki/Lamu_Old_Town
Le Morne Cultural Landscape,"MauritiusRivière Noire District, Mauritius20°27′07″S 57°19′42″E﻿ / ﻿20.451944°S 57.328333°E﻿ / -20.451944; 57.328333﻿ (Le Morne Cultural Landscape)","Cultural:MauritiusLem(iii), (vi)",7006349000000000000♠349 (860),2006,20.45194435119629,57.32833480834961,NA,/wiki/Le_Morne_Cultural_Landscape,https://en.wikipedia.org/wiki/Le_Morne_Cultural_Landscape
Lower Valley of the Awash,"EthAfar Region, Ethiopia11°06′00″N 40°34′46″E﻿ / ﻿11.100060°N 40.579390°E﻿ / 11.100060; 40.579390﻿ (Lower Valley of the Awash)","Cultural:EthLow(ii), (iii), (iv)",—,2006,11.100000381469727,40.579444885253906,Ethiopia,/wiki/Awash_River,https://en.wikipedia.org/wiki/Awash_River
Lower Valley of the Omo,"EthSouthern Nations, Nationalities, and People's Region, Ethiopia4°48′00″N 35°58′00″E﻿ / ﻿4.8°N 35.966667°E﻿ / 4.8; 35.966667﻿ (Lower Valley of the Omo)","Cultural:EthLow(iii), (iv)",—,2006,4.800000190734863,35.96666717529297,Ethiopia,/wiki/Omo_River_(Ethiopia),https://en.wikipedia.org/wiki/Omo_River_(Ethiopia)
M'Zab Valley,"AlgGhardaïa, Algeria32°29′00″N 3°41′00″E﻿ / ﻿32.483330°N 3.683330°E﻿ / 32.483330; 3.683330﻿ (M'Zab Valley)","Cultural:AlgMZa(ii), (iii), (v)","7007400000000000000♠4,000 (9,900)",2006,32.483333587646484,3.683333396911621,Algeria,NA,https://en.wikipedia.orgNA
Mapungubwe Cultural Landscape,"SouthLimpopo, South Africa22°11′33″S 29°14′20″E﻿ / ﻿22.192500°S 29.238890°E﻿ / -22.192500; 29.238890﻿ (Mapungubwe Cultural Landscape)","Cultural:SouthMap(ii), (iii),(iv), (v)","7008281680000000000♠28,168 (69,600)",2006,22.1924991607666,29.238889694213867,South Africa,/wiki/Mapungubwe_Cultural_Landscape,https://en.wikipedia.org/wiki/Mapungubwe_Cultural_Landscape
Matobo Hills,"ZimMatabeleland South, Zimbabwe20°30′S 28°30′E﻿ / ﻿20.5°S 28.5°E﻿ / -20.5; 28.5﻿ (Matobo Hills)","Cultural:ZimMat(iii), (v), (vi)","7009205000000000000♠205,000 (510,000)",2006,20.5,28.5,Zimbabwe,/wiki/Matobo_Hills,https://en.wikipedia.org/wiki/Matobo_Hills
Mbanza-Kongo,"ANGZaire Province, Angola6°16′04″S 14°14′53″E﻿ / ﻿6.267778°S 14.248056°E﻿ / -6.267778; 14.248056﻿ (Mbanza-Kongo)","Cultural:MorMedinaofMarra(iii), (iv), (vi)",7005892900000000000♠89.29 (220.6),2006,6.267777919769287,14.248055458068848,Angola,/wiki/Mbanza-Kongo,https://en.wikipedia.org/wiki/Mbanza-Kongo
Medina of Essaouira (formerly Mogador),"MorEssaouira, Morocco31°31′00″N 9°46′10″W﻿ / ﻿31.516670°N 9.769440°W﻿ / 31.516670; -9.769440﻿ (Medina of Essaouira (formerly Mogador))","Cultural:MorEss(ii), (iv)",7005300000000000000♠30 (74),2006,31.516666412353516,9.769444465637207,Morocco,/wiki/Essaouira,https://en.wikipedia.org/wiki/Essaouira
Medina of Fez,"MorFez, Morocco34°03′40″N 4°58′40″W﻿ / ﻿34.061110°N 4.977780°W﻿ / 34.061110; -4.977780﻿ (Medina of Fez)","Cultural:MorMedinaofFez(ii), (v)",7006280000000000000♠280 (690),2006,34.06111145019531,4.97777795791626,Morocco,/wiki/Fes_el_Bali,https://en.wikipedia.org/wiki/Fes_el_Bali
Medina of Marrakesh,"MorMarrakesh, Morocco31°37′53″N 7°59′12″W﻿ / ﻿31.631390°N 7.986670°W﻿ / 31.631390; -7.986670﻿ (Medina of Marrakesh)","Cultural:MorMedinaofMarra(i), (ii),(iv), (v)","7007110700000000000♠1,107 (2,740)",2006,31.631389617919922,7.986666679382324,Morocco,/wiki/Medina_of_Marrakesh,https://en.wikipedia.org/wiki/Medina_of_Marrakesh
Medina of Sousse,"TunSousse Governorate, Tunisia35°49′40″N 10°38′19″E﻿ / ﻿35.827780°N 10.638610°E﻿ / 35.827780; 10.638610﻿ (Medina of Sousse)","Cultural:TunMedinaofSou(iii), (iv), (v)",7005320000000000000♠32 (79),2006,35.82777786254883,10.63861083984375,Tunisia,/wiki/Medina_of_Sousse,https://en.wikipedia.org/wiki/Medina_of_Sousse
Medina of Tétouan (formerly known as Titawin),"MorTétouan, Morocco35°34′15″N 5°22′00″W﻿ / ﻿35.570830°N 5.366670°W﻿ / 35.570830; -5.366670﻿ (Medina of Tétouan (formerly known as Titawin))","Cultural:MorMedinaofTet(ii), (iv), (v)",7004700000000000000♠7 (17),2006,35.57083511352539,5.366666793823242,Morocco,/wiki/T%C3%A9touan,https://en.wikipedia.org/wiki/T%C3%A9touan
Medina of Tunis,"TunTunis, Tunisia36°49′00″N 10°10′00″E﻿ / ﻿36.816670°N 10.166670°E﻿ / 36.816670; 10.166670﻿ (Medina of Tunis)","Cultural:TunMedinaofTun(ii), (iii), (v)",—,2006,36.81666564941406,10.166666984558105,Tunisia,/wiki/Medina_of_Tunis,https://en.wikipedia.org/wiki/Medina_of_Tunis
Memphis and its Necropolis – the Pyramid Fields from Giza to Dahshur,"EgyGiza, Egypt29°58′34″N 31°07′49″E﻿ / ﻿29.976040°N 31.130410°E﻿ / 29.976040; 31.130410﻿ (Memphis and its Necropolis – the Pyramid Fields from Giza to Dahshur)","Cultural:EgyMem(i), (iii), (vi)","7008163580000000000♠16,358 (40,420)",2006,29.976110458374023,31.130277633666992,Egypt,NA,https://en.wikipedia.orgNA
Nubian Monuments from Abu Simbel to Philae,"EgyAswan, Egypt22°20′11″N 31°37′34″E﻿ / ﻿22.336390°N 31.626110°E﻿ / 22.336390; 31.626110﻿ (Nubian Monuments from Abu Simbel to Philae)","Cultural:EgyNub(i), (iii), (vi)",7006374000000000000♠374 (920),2006,22.336389541625977,31.62611198425293,Egypt,/wiki/Nubian_Monuments_from_Abu_Simbel_to_Philae,https://en.wikipedia.org/wiki/Nubian_Monuments_from_Abu_Simbel_to_Philae
Old Towns of Djenné,"MaliDjenné, Mali13°54′23″N 4°33′18″W﻿ / ﻿13.906390°N 4.555000°W﻿ / 13.906390; -4.555000﻿ (Old Towns of Djenné)","Cultural:MaliOld(iii), (iv)",—,2006,13.906389236450195,4.554999828338623,Mali,/wiki/Old_Towns_of_Djenn%C3%A9,https://en.wikipedia.org/wiki/Old_Towns_of_Djenn%C3%A9
Old Town of Ghadamès,"LibGhadames, Libya30°08′00″N 9°30′00″E﻿ / ﻿30.133333°N 9.5°E﻿ / 30.133333; 9.5﻿ (Old Town of Ghadamès)",Cultural:LibGha(v),—,2006,30.133333206176758,9.5,Libya,/wiki/Ghadames,https://en.wikipedia.org/wiki/Ghadames
Osun-Osogbo Sacred Grove,"Niger2Osogbo, Nigeria7°45′20″N 4°33′08″E﻿ / ﻿7.755560°N 4.552220°E﻿ / 7.755560; 4.552220﻿ (Osun-Osogbo Sacred Grove)","Cultural:Niger2Osu(ii), (iii), (vi)",7005750000000000000♠75 (190),2006,2,7.755555629730225,Niger,/wiki/Osun-Osogbo_Sacred_Grove,https://en.wikipedia.org/wiki/Osun-Osogbo_Sacred_Grove
Portuguese City of Mazagan (El Jadida),"MorEl Jadida, Morocco33°15′24″N 8°30′07″W﻿ / ﻿33.256670°N 8.501940°W﻿ / 33.256670; -8.501940﻿ (Portuguese City of Mazagan (El Jadida))","Cultural:MorPor(ii), (iv)",7004800000000000000♠8 (20),2006,33.25666809082031,8.501944541931152,Morocco,/wiki/El_Jadida,https://en.wikipedia.org/wiki/El_Jadida
Punic Town of Kerkuane and its Necropolis,"TunNabeul Governorate, Tunisia36°56′47″N 11°05′57″E﻿ / ﻿36.946390°N 11.099170°E﻿ / 36.946390; 11.099170﻿ (Punic Town of Kerkuane and its Necropolis)",Cultural:TunPun(iii),—,2006,36.946388244628906,11.099166870117188,Tunisia,NA,https://en.wikipedia.orgNA
"Rabat, Modern Capital and Historic City: a Shared Heritage","MorRabat-Salé-Zemmour-Zaer, Morocco34°01′27″N 6°49′22″W﻿ / ﻿34.024167°N 6.822778°W﻿ / 34.024167; -6.822778﻿ (Rabat, Modern Capital and Historic City: a Shared Heritage)","Cultural:RabMor(ii), (iv)",7006349000000000000♠349 (860),2006,34.024166107177734,6.82277774810791,Morocco,NA,https://en.wikipedia.orgNA
Richtersveld Cultural and Botanical Landscape,"SouthNorthern Cape, South Africa28°36′00″S 17°12′14″E﻿ / ﻿28.6°S 17.203889°E﻿ / -28.6; 17.203889﻿ (Richtersveld Cultural and Botanical Landscape)","Cultural:SouthRic(iv), (v)","7009160000000000000♠160,000 (400,000)",2006,28.600000381469727,17.203887939453125,South Africa,/wiki/Richtersveld_Cultural_and_Botanical_Landscape,https://en.wikipedia.org/wiki/Richtersveld_Cultural_and_Botanical_Landscape
Robben Island,"SouthWestern Cape, South Africa33°48′00″S 18°22′00″E﻿ / ﻿33.8°S 18.366667°E﻿ / -33.8; 18.366667﻿ (Robben Island)","Cultural:SouthRob(iii), (vi)","7006475000000000000♠475 (1,170)",2006,33.79999923706055,18.366666793823242,South Africa,/wiki/Robben_Island,https://en.wikipedia.org/wiki/Robben_Island
Rock-Art Sites of Tadrart Acacus,"LibFezzan, Libya24°50′00″N 10°20′00″E﻿ / ﻿24.833330°N 10.333330°E﻿ / 24.833330; 10.333330﻿ (Rock-Art Sites of Tadrart Acacus)",Cultural:LibRoc(iii),—,2006,24.83333396911621,10.333333015441895,Libya,/wiki/Rock-Art_Sites_of_Tadrart_Acacus,https://en.wikipedia.org/wiki/Rock-Art_Sites_of_Tadrart_Acacus
"Rock-Hewn Churches, Lalibela","EthAmhara Region, Ethiopia12°01′46″N 39°02′26″E﻿ / ﻿12.029350°N 39.040420°E﻿ / 12.029350; 39.040420﻿ (Rock-Hewn Churches, Lalibela)","Cultural:EthRoc(i), (ii), (iii)",—,2006,12.029444694519043,39.04055404663086,Ethiopia,"/wiki/Lalibela,_Ethiopia","https://en.wikipedia.org/wiki/Lalibela,_Ethiopia"
Royal Hill of Ambohimanga,"MadAntananarivo, Madagascar18°45′33″S 47°33′46″E﻿ / ﻿18.759170°S 47.562780°E﻿ / -18.759170; 47.562780﻿ (Royal Hill of Ambohimanga)","Cultural:MadRoy(iii), (iv), (vi)",7005590000000000000♠59 (150),2006,18.759166717529297,47.56277847290039,Madagascar,/wiki/Royal_Hill_of_Ambohimanga,https://en.wikipedia.org/wiki/Royal_Hill_of_Ambohimanga
Royal Palaces of Abomey,"BenZou Department, Benin7°11′00″N 1°59′00″E﻿ / ﻿7.183333°N 1.983333°E﻿ / 7.183333; 1.983333﻿ (Royal Palaces of Abomey)","Cultural:BenRoy(iii), (iv)",7005480000000000000♠48 (120),2006,7.183333396911621,1.9833333492279053,Benin,/wiki/Royal_Palaces_of_Abomey,https://en.wikipedia.org/wiki/Royal_Palaces_of_Abomey
Ruins of Kilwa Kisiwani and Ruins of Songo Mnara,"TanKilwa District, Tanzania, United Republic of8°57′28″S 39°31′22″E﻿ / ﻿8.957780°S 39.522780°E﻿ / -8.957780; 39.522780﻿ (Ruins of Kilwa Kisiwani and Ruins of Songo Mnara)",Cultural:TanRui(iii),—,2006,8.957777976989746,39.52277755737305,Tanzania,NA,https://en.wikipedia.orgNA
Ruins of Loropéni,"BurLoropéni, Burkina Faso10°15′00″N 3°35′00″W﻿ / ﻿10.25°N 3.583333°W﻿ / 10.25; -3.583333﻿ (Ruins of Loropéni)",Cultural:BurRui(iii),7004110000000000000♠1.1 (2.7),2006,10.25,3.5833332538604736,Burkina Faso,/wiki/Ruins_of_Lorop%C3%A9ni,https://en.wikipedia.org/wiki/Ruins_of_Lorop%C3%A9ni
Sacred Mijikenda Kaya Forests,"KenCoast Province, Kenya3°55′55″S 39°35′46″E﻿ / ﻿3.931944°S 39.596111°E﻿ / -3.931944; 39.596111﻿ (Sacred Mijikenda Kaya Forests)","Cultural:KenSac(iii), (v), (vi)","7007153800000000000♠1,538 (3,800)",2006,3.9319443702697754,39.59611129760742,Kenya,/wiki/Kaya_(Mijikenda),https://en.wikipedia.org/wiki/Kaya_(Mijikenda)
Saint Catherine Area,"EgySouth Sinai Governorate, Egypt28°33′22″N 33°58′32″E﻿ / ﻿28.556230°N 33.975430°E﻿ / 28.556230; 33.975430﻿ (Saint Catherine Area)","Cultural:EgySai(i), (iii),(iv), (vi)","7008601000000000000♠60,100 (149,000)",2006,28.556110382080078,33.975555419921875,Egypt,/wiki/Saint_Catherine%27s_Monastery,https://en.wikipedia.org/wiki/Saint_Catherine%27s_Monastery
Saloum Delta,Sen Senegal13°50′07″N 16°29′55″W﻿ / ﻿13.835278°N 16.498611°W﻿ / 13.835278; -16.498611﻿ (Saloum Delta),"Cultural:SenSal(iii), (iv), (v)","7009145811000000000♠145,811 (360,310)",2006,13.835277557373047,16.498611450195312,Senegal,/wiki/Saloum_Delta_National_Park,https://en.wikipedia.org/wiki/Saloum_Delta_National_Park
San Cristóbal de la Laguna,"SpaProvince of Santa Cruz de Tenerife, Spain28°28′40″N 16°18′42″W﻿ / ﻿28.477889°N 16.311778°W﻿ / 28.477889; -16.311778﻿ (San Cristóbal de La Laguna)","Cultural:SpaSan(ii), (iv)",7005600000000000000♠60 (150),2006,28.4777774810791,16.31166648864746,Spain,/wiki/San_Crist%C3%B3bal_de_la_Laguna,https://en.wikipedia.org/wiki/San_Crist%C3%B3bal_de_la_Laguna
Stone Circles of Senegambia,"GamXCentral River Divisionand Kaolack Region, Gambia* Senegal*13°41′28″N 15°31′21″W﻿ / ﻿13.691111°N 15.522500°W﻿ / 13.691111; -15.522500﻿ (Stone Circles of Senegambia)","Cultural:GamSto(i), (iii)",7005100000000000000♠10 (25),2006,13.69111156463623,15.522500038146973,Gambia,/wiki/Stone_Circles_of_Senegambia,https://en.wikipedia.org/wiki/Stone_Circles_of_Senegambia
Stone Town of Zanzibar,"TanZanzibar, Tanzania, United Republic of6°09′47″S 39°11′21″E﻿ / ﻿6.163060°S 39.189170°E﻿ / -6.163060; 39.189170﻿ (Stone Town of Zanzibar)","Cultural:TanSton(ii), (iii), (vi)",7005960000000000000♠96 (240),2006,6.163055419921875,39.18916702270508,Tanzania,/wiki/Stone_Town_of_Zanzibar,https://en.wikipedia.org/wiki/Stone_Town_of_Zanzibar
Sukur Cultural Landscape,"Niger2Madagali, Nigeria10°44′26″N 13°34′19″E﻿ / ﻿10.740560°N 13.571940°E﻿ / 10.740560; 13.571940﻿ (Sukur Cultural Landscape)","Cultural:Niger2Suk(iii), (v), (vi)",—,2006,2,10.740555763244629,Niger,/wiki/Sukur_Cultural_Landscape,https://en.wikipedia.org/wiki/Sukur_Cultural_Landscape
Thimlich Ohinga Archaeological Site,"KenMigori County, Kenya0°58′23″S 34°15′30″E﻿ / ﻿0.9731°S 34.2583°E﻿ / -0.9731; 34.2583﻿ (Thimlich Ohinga)","Cultural:KenThi(iii), (iv), (v)",7005210000000000000♠21 (52),2006,0.9730555415153503,34.25833511352539,Kenya,/wiki/Thimlich_Ohinga,https://en.wikipedia.org/wiki/Thimlich_Ohinga
Timbuktu,"MaliTimbuktu Cercle, Mali16°46′24″N 2°59′58″W﻿ / ﻿16.773333°N 2.999444°W﻿ / 16.773333; -2.999444﻿ (Timbuktu)","Cultural:MaliTim(ii), (iv), (v)",—,2006,16.773332595825195,2.9994444847106934,Mali,/wiki/Timbuktu,https://en.wikipedia.org/wiki/Timbuktu
Timgad,"AlgBatna Province, Algeria35°29′03″N 6°28′07″E﻿ / ﻿35.484167°N 6.468611°E﻿ / 35.484167; 6.468611﻿ (Timgad)","Cultural:AlgTim(ii), (iii), (iv)",7002400000000000000♠0.04 (0.099),2006,35.48416519165039,6.468611240386963,Algeria,/wiki/Timgad,https://en.wikipedia.org/wiki/Timgad
Tipasa,"AlgTipaza, Algeria36°35′31″N 2°26′58″E﻿ / ﻿36.591944°N 2.449444°E﻿ / 36.591944; 2.449444﻿ (Tipasa)","Cultural:AlgTip(iii), (iv)",7005520000000000000♠52 (130),2006,36.59194564819336,2.449444532394409,Algeria,/wiki/Tipaza,https://en.wikipedia.org/wiki/Tipaza
Tiya,"EthSouthern Nations, Nationalities, and People's Region, Ethiopia8°26′06″N 38°36′44″E﻿ / ﻿8.434910°N 38.612100°E﻿ / 8.434910; 38.612100﻿ (Tiya)","Cultural:EthTiy(i), (iv)",—,2006,8.4350004196167,38.612220764160156,Ethiopia,/wiki/Tiya_(archaeological_site),https://en.wikipedia.org/wiki/Tiya_(archaeological_site)
Tomb of Askia,"MaliGao Region, Mali16°17′23″N 0°02′40″E﻿ / ﻿16.289800°N 0.044560°E﻿ / 16.289800; 0.044560﻿ (Tomb of Askia)","Cultural:MaliTom(ii), (iii), (iv)",7004400000000000000♠4 (9.9),2006,16.289722442626953,0.04444444552063942,Mali,/wiki/Tomb_of_Askia,https://en.wikipedia.org/wiki/Tomb_of_Askia
Tombs of Buganda Kings at Kasubi,"UgandaKampala District, Uganda0°20′55″N 32°33′05″E﻿ / ﻿0.348611°N 32.551389°E﻿ / 0.348611; 32.551389﻿ (Tombs of Buganda Kings at Kasubi)","Cultural:UgandaTom(i), (iii),(iv), (vi)",7005270000000000000♠27 (67),2006,0.34861111640930176,32.551387786865234,Uganda,/wiki/Tombs_of_Buganda_Kings_at_Kasubi,https://en.wikipedia.org/wiki/Tombs_of_Buganda_Kings_at_Kasubi
Tsodilo,"BotNorth-West, Botswana18°45′00″S 21°44′00″E﻿ / ﻿18.75°S 21.733333°E﻿ / -18.75; 21.733333﻿ (Tsodilo)","Cultural:BotTso(i), (iii), (vi)","7007480000000000000♠4,800 (12,000)",2006,18.75,21.733333587646484,Botswana,/wiki/Tsodilo,https://en.wikipedia.org/wiki/Tsodilo
Twyfelfontein or /Ui-//aes,"NamTwyKunene, Namibia20°35′44″S 14°22′21″E﻿ / ﻿20.595583°S 14.372583°E﻿ / -20.595583; 14.372583﻿ (Twyfelfontein or /Ui-//aes)","Cultural:NamTwy(iii), (v)",7005570000000000000♠57 (140),2006,20.595556259155273,14.3725004196167,Namibia,/wiki/Twyfelfontein,https://en.wikipedia.org/wiki/Twyfelfontein
Aasivissuit – Nipisat. Inuit Hunting Ground between Ice and Sea,"Nipisat, western  Greenland, Kingdom of Denmark67°3′50″N 51°25′59″W﻿ / ﻿67.06389°N 51.43306°W﻿ / 67.06389; -51.43306﻿ (Aasivissuit – Nipisat. Inuit Hunting Ground between Ice and Sea)",Cultural:(v),"7009417800000000000♠417,800 (1,032,000)",2018,67.06388854980469,51.43305587768555,Greenland,NA,https://en.wikipedia.orgNA
Agave Landscape and Ancient Industrial Facilities of Tequila,"Jalisco,  Mexico20°51′47″N 103°46′43″W﻿ / ﻿20.86306°N 103.77861°W﻿ / 20.86306; -103.77861﻿ (Agave Landscape and Ancient Industrial Facilities of Tequila)","Cultural:(ii), (iv), (v), (vi)","7008340190000000000♠34,019 (84,060); buffer zone 51,261 (126,670)",2018,20.863056182861328,103.77861022949219,Mexico,/wiki/Agave_Landscape_and_Ancient_Industrial_Facilities_of_Tequila,https://en.wikipedia.org/wiki/Agave_Landscape_and_Ancient_Industrial_Facilities_of_Tequila
Aqueduct of Padre Tembleque Hydraulic System,"Hidalgo and Estado de México,  Mexico19°50′07″N 98°39′45″W﻿ / ﻿19.835278°N 98.662567°W﻿ / 19.835278; -98.662567﻿ (Aqueduct of Padre Tembleque Hydraulic System)","Cultural:(i), (ii), (iv)","7007654000000000000♠6,540 (16,200); buffer zone 34,820 (86,000)",2018,19.835277557373047,98.6624984741211,Mexico,/wiki/Aqueduct_of_Padre_Tembleque,https://en.wikipedia.org/wiki/Aqueduct_of_Padre_Tembleque
Archaeological Monuments Zone of Xochicalco,"MexicoMiacatlán, Morelos Mexico18°48′37″N 99°16′30″W﻿ / ﻿18.81028°N 99.27500°W﻿ / 18.81028; -99.27500﻿ (Archaeological Monuments Zone of Xochicalco)","Cultural:(iii), (iv)","7006708000000000000♠708 (1,750)",2018,18.810277938842773,99.2750015258789,Mexico,/wiki/Archaeological_Monuments_Zone_of_Xochicalco,https://en.wikipedia.org/wiki/Archaeological_Monuments_Zone_of_Xochicalco
"Archaeological Zone of Paquimé, Casas Grandes","Chihuahua,  Mexico30°22′33″N 107°57′20″W﻿ / ﻿30.37583°N 107.95556°W﻿ / 30.37583; -107.95556﻿ (Archaeological Zone of Paquimé, Casas Grandes)","Cultural:(iii), (iv)",—,2018,30.37583351135254,107.95555877685547,Mexico,"/wiki/Archaeological_Zone_of_Paquim%C3%A9,_Casas_Grandes","https://en.wikipedia.org/wiki/Archaeological_Zone_of_Paquim%C3%A9,_Casas_Grandes"
Cahokia Mounds State Historic Site,"United StatesIllinois, United States38°39′31″N 90°3′41″W﻿ / ﻿38.65861°N 90.06139°W﻿ / 38.65861; -90.06139﻿ (Cahokia Mounds State Historic Site)","Cultural:(iii), (iv)",—,2018,38.65861129760742,90.06138610839844,United States,/wiki/Cahokia_Mounds_State_Historic_Site,https://en.wikipedia.org/wiki/Cahokia_Mounds_State_Historic_Site
Camino Real de Tierra Adentro,Mexico22°36′N 102°23′W﻿ / ﻿22.600°N 102.383°W﻿ / 22.600; -102.383﻿ (Camino Real de Tierra Adentro),"Cultural:(ii), (iv)","7007310200000000000♠3,102 (7,670); buffer zone 268,057 (662,380)",2018,22.600000381469727,102.38333129882812,Mexico,/wiki/Camino_Real_de_Tierra_Adentro,https://en.wikipedia.org/wiki/Camino_Real_de_Tierra_Adentro
Central University City Campus of the National Autonomous University of Mexico,"Mexico City,  Mexico19°19′56″N 99°11′17″W﻿ / ﻿19.33222°N 99.18806°W﻿ / 19.33222; -99.18806﻿ (Central University City Campus of the Universidad Nacional Autónoma de México (UNAM))","Cultural:(i), (ii), (iv)","7006177000000000000♠177 (440); buffer zone 1,102 (2,720)",2018,19.33222198486328,99.18805694580078,Mexico,NA,https://en.wikipedia.orgNA
Chaco Culture,"United StatesNew Mexico, United States36°3′50″N 107°58′15″W﻿ / ﻿36.06389°N 107.97083°W﻿ / 36.06389; -107.97083﻿ (Chaco Culture)",Cultural:(iii),—,2018,36.06388854980469,107.97083282470703,United States,/wiki/Chaco_Culture,https://en.wikipedia.org/wiki/Chaco_Culture
Earliest 16th-century Monasteries on the Slopes of Popocatepetl,"Morelos and Puebla,  Mexico18°56′N 98°54′W﻿ / ﻿18.933°N 98.900°W﻿ / 18.933; -98.900﻿ (Earliest 16th-Century Monasteries on the Slopes of Popocatepetl)","Cultural:(ii), (iv)",—,2018,18.933332443237305,98.9000015258789,Mexico,/wiki/Monasteries_on_the_slopes_of_Popocat%C3%A9petl,https://en.wikipedia.org/wiki/Monasteries_on_the_slopes_of_Popocat%C3%A9petl
Prehistoric city of El Tajín,"Veracruz,  Mexico20°28′35″N 97°22′39″W﻿ / ﻿20.47639°N 97.37750°W﻿ / 20.47639; -97.37750﻿ (El Tajin, Pre-Hispanic City)","Cultural:(iii), (iv)",—,2018,20.476388931274414,97.37750244140625,Mexico,NA,https://en.wikipedia.orgNA
Franciscan Missions in the Sierra Gorda of Querétaro,"Querétaro,  Mexico21°12′16″N 99°27′51″W﻿ / ﻿21.20444°N 99.46417°W﻿ / 21.20444; -99.46417﻿ (Franciscan Missions in the Sierra Gorda of Querétaro)","Cultural:(ii), (iii)",7006104000000000000♠104 (260),2018,21.204444885253906,99.46416473388672,Mexico,/wiki/Franciscan_Missions_in_the_Sierra_Gorda,https://en.wikipedia.org/wiki/Franciscan_Missions_in_the_Sierra_Gorda
Head-Smashed-In Buffalo Jump,CanadaAlberta Canada49°44′58″N 113°37′26″W﻿ / ﻿49.74944°N 113.62389°W﻿ / 49.74944; -113.62389﻿ (Head-Smashed-In Buffalo Jump),Cultural:(vi),—,2018,49.74944305419922,113.62388610839844,Canada,/wiki/Head-Smashed-In_Buffalo_Jump,https://en.wikipedia.org/wiki/Head-Smashed-In_Buffalo_Jump
"Historic Town of St George and Related Fortifications, Bermuda","BermudaSt. George Bermuda,  United Kingdom32°22′46″N 64°40′40″W﻿ / ﻿32.37944°N 64.67778°W﻿ / 32.37944; -64.67778﻿ (Historic Town of St George and Related Fortifications, Bermuda)",Cultural:(iv),7006258000000000000♠258 (640),2018,0.6994444727897644,64.67778015136719,United Kingdom,NA,https://en.wikipedia.orgNA
Historic Centre of Mexico City and Xochimilco,"Mexico City,  Mexico19°25′6″N 99°7′58″W﻿ / ﻿19.41833°N 99.13278°W﻿ / 19.41833; -99.13278﻿ (Historic Centre of Mexico City and Xochimilco)","Cultural:(ii), (iii), (iv), (v)",—,2018,19.418333053588867,99.13277435302734,Mexico,NA,https://en.wikipedia.orgNA
Historic Centre of Morelia,"Michoacán,  Mexico19°42′16″N 101°11′30″W﻿ / ﻿19.70444°N 101.19167°W﻿ / 19.70444; -101.19167﻿ (Historic Centre of Morelia)","Cultural:(ii), (iv), (vi)",7006390000000000000♠390 (960),2018,19.704444885253906,101.19166564941406,Mexico,/wiki/Historic_Centre_of_Morelia,https://en.wikipedia.org/wiki/Historic_Centre_of_Morelia
Historic Centre of Oaxaca and Archaeological Site of Monte Albán,"Oaxaca,  Mexico17°3′43″N 96°43′18″W﻿ / ﻿17.06194°N 96.72167°W﻿ / 17.06194; -96.72167﻿ (Historic Centre of Oaxaca and Archaeological Site of Monte Albán)","Cultural:(i), (ii), (iii), (iv)",7006375000000000000♠375 (930); buffer zone 121 (300),2018,17.06194496154785,96.72166442871094,Mexico,NA,https://en.wikipedia.orgNA
Historic Centre of Zacatecas,"Zacatecas, Zacatecas,  Mexico22°46′0″N 102°33′20″W﻿ / ﻿22.76667°N 102.55556°W﻿ / 22.76667; -102.55556﻿ (Historic Centre of Zacatecas)","Cultural:(ii), (iv)",7006110000000000000♠110 (270),2018,22.766666412353516,102.55555725097656,Mexico,/wiki/Historic_Centre_of_Zacatecas,https://en.wikipedia.org/wiki/Historic_Centre_of_Zacatecas
Historic District of Old Québec,"CanadaQuebec City, Quebec Canada46°48′34″N 71°12′38″W﻿ / ﻿46.80944°N 71.21056°W﻿ / 46.80944; -71.21056﻿ (Historic District of Old Québec)","Cultural:(iv), (vi)",—,2018,46.809444427490234,71.21055603027344,Canada,NA,https://en.wikipedia.orgNA
Historic Fortified Town of Campeche,"Campeche, Campeche,  Mexico19°50′47″N 90°32′14″W﻿ / ﻿19.84639°N 90.53722°W﻿ / 19.84639; -90.53722﻿ (Historic Fortified Town of Campeche)","Cultural:(ii), (iv)",7006181000000000000♠181 (450),2018,19.846389770507812,90.53722381591797,Mexico,/wiki/Historic_Fortified_Town_of_Campeche,https://en.wikipedia.org/wiki/Historic_Fortified_Town_of_Campeche
Historic Monuments Zone of Querétaro,"Querétaro, Querétaro,  Mexico20°35′0″N 100°22′0″W﻿ / ﻿20.58333°N 100.36667°W﻿ / 20.58333; -100.36667﻿ (Historic Monuments Zone of Querétaro)","Cultural:(ii), (iv)",—,2018,20.58333396911621,100.36666870117188,Mexico,/wiki/Historic_Monuments_Zone_of_Quer%C3%A9taro,https://en.wikipedia.org/wiki/Historic_Monuments_Zone_of_Quer%C3%A9taro
Historic Monuments Zone of Tlacotalpan,"Tlacotalpan, Veracruz,  Mexico18°36′30″N 95°39′30″W﻿ / ﻿18.60833°N 95.65833°W﻿ / 18.60833; -95.65833﻿ (Historic Monuments Zone of Tlacotalpan)","Cultural:(ii), (iv)",—,2018,18.608333587646484,95.65833282470703,Mexico,/wiki/Historic_Monuments_Zone_of_Tlacotalpan,https://en.wikipedia.org/wiki/Historic_Monuments_Zone_of_Tlacotalpan
Historic Town of Guanajuato and Adjacent Mines,"Guanajuato, Guanajuato,  Mexico21°1′1″N 101°15′20″W﻿ / ﻿21.01694°N 101.25556°W﻿ / 21.01694; -101.25556﻿ (Historic Town of Guanajuato and Adjacent Mines)","Cultural:(i), (ii), (iv), (vi)",7006190000000000000♠190 (470),2018,21.016944885253906,101.25555419921875,Mexico,/wiki/Historic_Town_of_Guanajuato_and_Adjacent_Mines,https://en.wikipedia.org/wiki/Historic_Town_of_Guanajuato_and_Adjacent_Mines
"Hospicio Cabañas, Guadalajara","Guadalajara, Jalisco,  Mexico20°40′26″N 103°20′23″W﻿ / ﻿20.67389°N 103.33972°W﻿ / 20.67389; -103.33972﻿ (Hospicio Cabañas, Guadalajara)","Cultural:(i), (ii), (iii), (iv)",—,2018,20.67388916015625,103.3397216796875,Mexico,"/wiki/Hospicio_Caba%C3%B1as,_Guadalajara","https://en.wikipedia.org/wiki/Hospicio_Caba%C3%B1as,_Guadalajara"
Independence Hall,"United StatesPhiladelphia, Pennsylvania, United States39°56′55″N 75°9′0″W﻿ / ﻿39.94861°N 75.15000°W﻿ / 39.94861; -75.15000﻿ (Independence Hall)",Cultural:(vi),—,2018,39.948612213134766,75.1500015258789,United States,/wiki/Independence_Hall,https://en.wikipedia.org/wiki/Independence_Hall
Kujataa Greenland: Norse and Inuit Farming at the Edge of the Ice Cap,"Kujalleq, southern  Greenland, Kingdom of Denmark61°9′52″N 45°35′52″W﻿ / ﻿61.16444°N 45.59778°W﻿ / 61.16444; -45.59778﻿ (Kujataa: Norse and Inuit Farming at the Edge of the Ice Cap)",Cultural:(v),"7008348920000000000♠34,892 (86,220)",2018,61.16444396972656,45.5977783203125,Greenland,/wiki/Kujataa,https://en.wikipedia.org/wiki/Kujataa
La Fortaleza and San Juan National Historic Site in Puerto Rico,"United StatesSan Juan, Puerto Rico, United States18°28′0″N 66°7′30″W﻿ / ﻿18.46667°N 66.12500°W﻿ / 18.46667; -66.12500﻿ (La Fortaleza and San Juan National Historic Site in Puerto Rico)",Cultural:(vi),—,2018,18.46666717529297,66.125,United States,NA,https://en.wikipedia.orgNA
Landscape of Grand Pré,"CanadaNova Scotia, Canada45°7′6″N 64°18′26″W﻿ / ﻿45.11833°N 64.30722°W﻿ / 45.11833; -64.30722﻿ (Landscape of Grand Pré)","Cultural:(v), (vi)","7007132300000000000♠1,323 (3,270)",2018,45.11833190917969,64.307220458984375,Canada,/wiki/Grand-Pr%C3%A9_National_Historic_Site,https://en.wikipedia.org/wiki/Grand-Pr%C3%A9_National_Historic_Site
L'Anse aux Meadows National Historic Site,CanadaNewfoundland and Labrador Canada51°28′0″N 55°37′0″W﻿ / ﻿51.46667°N 55.61667°W﻿ / 51.46667; -55.61667﻿ (L’Anse aux Meadows National Historic Site),Cultural:(vi),—,2018,51.46666717529297,55.61666488647461,Canada,NA,https://en.wikipedia.orgNA
Luis Barragán House and Studio,"Mexico City,  Mexico19°25′6″N 99°11′54″W﻿ / ﻿19.41833°N 99.19833°W﻿ / 19.41833; -99.19833﻿ (Luis Barragán House and Studio)","Cultural:(i), (ii)",7003120000000000000♠0.12 (0.30); buffer zone 23 (57),2018,19.418333053588867,99.198333740234375,Mexico,/wiki/Luis_Barrag%C3%A1n_House_and_Studio,https://en.wikipedia.org/wiki/Luis_Barrag%C3%A1n_House_and_Studio
Mesa Verde National Park,"United StatesColorado, United States37°15′42″N 108°29′8″W﻿ / ﻿37.26167°N 108.48556°W﻿ / 37.26167; -108.48556﻿ (Mesa Verde National Park)",Cultural:(iii),—,2018,37.26166534423828,108.48555755615234,United States,/wiki/Mesa_Verde_National_Park,https://en.wikipedia.org/wiki/Mesa_Verde_National_Park
Monticello and the University of Virginia in Charlottesville,"United StatesVirginia, United States38°1′58″N 78°30′14″W﻿ / ﻿38.03278°N 78.50389°W﻿ / 38.03278; -78.50389﻿ (Monticello and the University of Virginia in Charlottesville)","Cultural:(i), (iv), (vi)",—,2018,38.03277587890625,78.50389099121094,United States,NA,https://en.wikipedia.orgNA
Pimachiowin Aki,"Manitoba and Ontario,  Canada51°49′0″N 95°24′0″W﻿ / ﻿51.81667°N 95.40000°W﻿ / 51.81667; -95.40000﻿ (Pimachiowin Aki)","Cultural:(iii), (vi), (ix)","7010290400000000000♠2,904,000 (7,180,000); buffer zone 3,592,000 (8,880,000)",2018,51.81666564941406,95.4000015258789,Canada,/wiki/Pimachiowin_Aki,https://en.wikipedia.org/wiki/Pimachiowin_Aki
Monumental Earthworks of Poverty Point,"United StatesLouisiana, United States
32°38′13″N 91°24′23″W﻿ / ﻿32.63694°N 91.40639°W﻿ / 32.63694; -91.40639﻿ (Monumental Earthworks of Poverty Point)",Cultural:(iii),7006163000000000000♠163 (400),2018,32.63694381713867,91.40638732910156,United States,/wiki/Poverty_Point,https://en.wikipedia.org/wiki/Poverty_Point
Old Town Lunenburg,CanadaNova Scotia Canada44°22′34″N 64°18′33″W﻿ / ﻿44.37611°N 64.30917°W﻿ / 44.37611; -64.30917﻿ (Old Town Lunenburg),"Cultural:(iv), (v)",—,2018,44.3761100769043,64.30916595458984,Canada,"/wiki/Lunenburg,_Nova_Scotia","https://en.wikipedia.org/wiki/Lunenburg,_Nova_Scotia"
Pre-Hispanic City and National Park of Palenque,"Chiapas,  Mexico17°29′0″N 92°3′0″W﻿ / ﻿17.48333°N 92.05000°W﻿ / 17.48333; -92.05000﻿ (Pre-Hispanic City and National Park of Palenque)","Cultural:(i), (ii), (iii), (iv)",—,2018,17.483333587646484,92.05000305175781,Mexico,/wiki/Pre-Hispanic_City_and_National_Park_of_Palenque,https://en.wikipedia.org/wiki/Pre-Hispanic_City_and_National_Park_of_Palenque
Pre-Hispanic City of Chichen-Itza,"Yucatán,  Mexico20°40′0″N 88°36′0″W﻿ / ﻿20.66667°N 88.60000°W﻿ / 20.66667; -88.60000﻿ (Pre-Hispanic City of Chichen-Itza)","Cultural:(i), (ii), (iii)",—,2018,20.66666603088379,88.5999984741211,Mexico,/wiki/Pre-Hispanic_City_of_Chichen-Itza,https://en.wikipedia.org/wiki/Pre-Hispanic_City_of_Chichen-Itza
Pre-Hispanic City of Teotihuacan,"State of Mexico,  Mexico19°41′30″N 98°50′30″W﻿ / ﻿19.69167°N 98.84167°W﻿ / 19.69167; -98.84167﻿ (Pre-Hispanic City of Teotihuacan)","Cultural:(i), (ii), (iii), (iv), (vi)",—,2018,19.691667556762695,98.84166717529297,Mexico,/wiki/Pre-Hispanic_City_of_Teotihuacan,https://en.wikipedia.org/wiki/Pre-Hispanic_City_of_Teotihuacan
Pre-Hispanic Town of Uxmal,"Yucatán,  Mexico20°21′42″N 89°46′13″W﻿ / ﻿20.36167°N 89.77028°W﻿ / 20.36167; -89.77028﻿ (Pre-Hispanic Town of Uxmal)","Cultural:(i), (ii), (iii)",—,2018,20.361665725708008,89.77027893066406,Mexico,/wiki/Pre-Hispanic_Town_of_Uxmal,https://en.wikipedia.org/wiki/Pre-Hispanic_Town_of_Uxmal
Prehistoric Caves of Yagul and Mitla in the Central Valley of Oaxaca,"Oaxaca,  Mexico16°57′3″N 96°25′16″W﻿ / ﻿16.95083°N 96.42111°W﻿ / 16.95083; -96.42111﻿ (Prehistoric Caves of Yagul and Mitla in the Central Valley of Oaxaca)",Cultural:(iii),"7007151500000000000♠1,515 (3,740); buffer zone 3,860 (9,500)",2018,16.950834274291992,96.421112060546875,Mexico,NA,https://en.wikipedia.orgNA
Protective town of San Miguel and the Sanctuary of Jesús Nazareno de Atotonilco,"Guanajuato,  Mexico20°54′52″N 100°44′47″W﻿ / ﻿20.91444°N 100.74639°W﻿ / 20.91444; -100.74639﻿ (Protective town of San Miguel and the Sanctuary of Jesús Nazareno de Atotonilco)","Cultural:(ii), (iv)",7005470000000000000♠47 (120); buffer zone 47 (120),2018,20.914443969726562,100.74639129638672,Mexico,NA,https://en.wikipedia.orgNA
Pueblo de Taos,"United StatesNew Mexico, United States36°26′20″N 105°32′30″W﻿ / ﻿36.43889°N 105.54167°W﻿ / 36.43889; -105.54167﻿ (Pueblo de Taos)",Cultural:(iv),—,2018,36.43888854980469,105.54166412353516,United States,/wiki/Pueblo_de_Taos,https://en.wikipedia.org/wiki/Pueblo_de_Taos
Red Bay Basque Whaling Station,CanadaNewfoundland and Labrador Canada51°43′37″N 56°25′46″W﻿ / ﻿51.72694°N 56.42944°W﻿ / 51.72694; -56.42944﻿ (Red Bay Basque Whaling Station),"Cultural:(iii), (iv)",7006313000000000000♠313 (770); buffer zone 285 (700),2018,51.72694396972656,56.429443359375,Canada,NA,https://en.wikipedia.orgNA
Rideau Canal,CanadaOntario Canada45°0′N 75°46′W﻿ / ﻿45.000°N 75.767°W﻿ / 45.000; -75.767﻿ (Rideau Canal),"Cultural:(i), (iv)","7008214550000000000♠21,455 (53,020); buffer zone 2,363 (5,840)",2018,45,75.76667022705078,Canada,/wiki/Rideau_Canal,https://en.wikipedia.org/wiki/Rideau_Canal
Rock Paintings of the Sierra de San Francisco,"Baja California Sur,  Mexico27°39′20″N 112°54′58″W﻿ / ﻿27.65556°N 112.91611°W﻿ / 27.65556; -112.91611﻿ (Rock Paintings of the Sierra de San Francisco)","Cultural:(i), (iii)",—,2018,27.655555725097656,112.9161148071289,Mexico,/wiki/Rock_Paintings_of_the_Sierra_de_San_Francisco,https://en.wikipedia.org/wiki/Rock_Paintings_of_the_Sierra_de_San_Francisco
San Antonio Missions,"United StatesTexas, United States29°19′41″N 98°27′36″W﻿ / ﻿29.328056°N 98.460000°W﻿ / 29.328056; -98.460000﻿ (San Antonio Missions)",Cultural:(ii),"7006301000000000000♠301 (740); buffer zone 2,068 (5,110)",2018,29.32805633544922,98.45999908447266,United States,/wiki/San_Antonio_Missions_(World_Heritage_Site),https://en.wikipedia.org/wiki/San_Antonio_Missions_(World_Heritage_Site)
SGang Gwaay,"CanadaBritish Columbia, Canada52°5′42″N 131°13′13″W﻿ / ﻿52.09500°N 131.22028°W﻿ / 52.09500; -131.22028﻿ (SGang Gwaay)",Cultural:(iii),—,2018,52.095001220703125,131.22027587890625,Canada,NA,https://en.wikipedia.orgNA
Statue of Liberty,"United StatesNew York City, New York, United States40°41′22″N 74°2′41″W﻿ / ﻿40.68944°N 74.04472°W﻿ / 40.68944; -74.04472﻿ (Statue of Liberty)","Cultural:(i), (vi)",—,2018,40.68944549560547,74.04472351074219,United States,/wiki/Statue_of_Liberty,https://en.wikipedia.org/wiki/Statue_of_Liberty
Antigua Guatemala,"GuatemalaSacatepéquez Department, Guatemala14°34′N 90°40′W﻿ / ﻿14.567°N 90.667°W﻿ / 14.567; -90.667﻿ (Antigua Guatemala)","Cultural:(ii), (iii), (iv)",7005490000000000000♠49 (120),1979,14.566666603088379,90.66666412353516,Guatemala,/wiki/Antigua_Guatemala,https://en.wikipedia.org/wiki/Antigua_Guatemala
Archaeological Park and Ruins of Quirigua,"GuatemalaIzabal Department, Guatemala15°16′14″N 89°2′25″W﻿ / ﻿15.27056°N 89.04028°W﻿ / 15.27056; -89.04028﻿ (Archaeological Park and Ruins of Quirigua)","Cultural:(i), (ii), (iv)",—,1979,15.27055549621582,89.04027557373047,Guatemala,/wiki/Archaeological_Park_and_Ruins_of_Quirigua,https://en.wikipedia.org/wiki/Archaeological_Park_and_Ruins_of_Quirigua
Archaeological Site of Panamá Viejo and Historic District of Panamá,"PanamaPanamá District, Panamá Province, Panama9°00′24″N 79°29′06″W﻿ / ﻿9.00667°N 79.48500°W﻿ / 9.00667; -79.48500﻿ (Archaeological Site of Panamá Viejo and Historic District of Panamá)","Cultural:(ii), (iv), (vi)",7005570000000000000♠57 (140),1979,9.006667137145996,79.48500061035156,Panama,NA,https://en.wikipedia.orgNA
Fortifications on the Caribbean Side of Panama: Portobelo-San Lorenzo  †,"PanamaColón Province, Panama9°33′14″N 79°39′21″W﻿ / ﻿9.55389°N 79.65583°W﻿ / 9.55389; -79.65583﻿ (Fortifications on the Caribbean Side of Panama: Portobelo-San Lorenzo)","Cultural:(i), (iv)",—,1979,9.553889274597168,79.65583038330078,Panama,NA,https://en.wikipedia.orgNA
Joya de Cerén Archaeological Site,"El SalvadorOpico, La Libertad Department, El Salvador13°49′39″N 89°22′9″W﻿ / ﻿13.82750°N 89.36917°W﻿ / 13.82750; -89.36917﻿ (Joya de Cerén Archaeological Site)","Cultural:(iii), (iv)",—,1979,13.827500343322754,89.3691635131836,El Salvador,NA,https://en.wikipedia.orgNA
León Cathedral,NicaraguaLeón Nicaragua12°26′06″N 86°52′41″W﻿ / ﻿12.43500°N 86.87806°W﻿ / 12.43500; -86.87806﻿ (León Cathedral),"Cultural:(ii), (iv)",7003770000000000000♠0.77 (1.9); buffer zone 13 (32),1979,12.4350004196167,86.8780517578125,Nicaragua,/wiki/Le%C3%B3n_Cathedral_(Nicaragua),https://en.wikipedia.org/wiki/Le%C3%B3n_Cathedral_(Nicaragua)
Maya Site of Copan,"HondurasCopán Department, Honduras14°51′0″N 89°8′0″W﻿ / ﻿14.85000°N 89.13333°W﻿ / 14.85000; -89.13333﻿ (Maya Site of Copan)","Cultural:(iv), (vi)",—,1979,14.850000381469727,89.133331298828125,Honduras,NA,https://en.wikipedia.orgNA
Precolumbian Chiefdom Settlements with Stone Spheres of the Diquís,"Palmar Sur,  Costa Rica8°54′41″N 83°28′39″W﻿ / ﻿8.911389°N 83.477500°W﻿ / 8.911389; -83.477500﻿ (Precolumbian chiefdom settlements with stone spheres of the Diquís)",Cultural:(iii),"7007617200000000000♠6,172 (15,250); buffer zone 6,080 (15,000)",1979,8.911389350891113,83.47750091552734,Costa Rica,NA,https://en.wikipedia.orgNA
Ruins of León Viejo,"NicaraguaPuerto Momotombo, Municipality La Paz Centro, Department of León,  Nicaragua12°23′50″N 86°36′37″W﻿ / ﻿12.39722°N 86.61028°W﻿ / 12.39722; -86.61028﻿ (Ruins of León Viejo)","Cultural:(iii), (iv)",—,1979,12.397222518920898,86.61027526855469,Nicaragua,NA,https://en.wikipedia.orgNA
Antigua Naval Dockyard and Related Archaeological Sites,"AntiguaEnglish Harbour, Antigua, Antigua & Barbuda17°00′30″N 61°45′52″W﻿ / ﻿17.00833°N 61.76444°W﻿ / 17.00833; -61.76444﻿ (Antigua Naval Dockyard and Related Archaeological Sites)","Cultural:(ii), (iv)","7006255000000000000♠255 (630); buffer zone 3,873 (9,570)",2016,17.008333206176758,61.76444625854492,NA,/wiki/Nelson%27s_Dockyard,https://en.wikipedia.org/wiki/Nelson%27s_Dockyard
Archaeological Landscape of the First Coffee Plantations in the South-East of Cuba,"CubaSantiago de Cuba and Guantánamo, Cuba20°00′21″N 75°37′4″W﻿ / ﻿20.00583°N 75.61778°W﻿ / 20.00583; -75.61778﻿ (Archaeological Landscape of the First Coffee Plantations in the South-East of Cuba)","Cultural:(iii), (iv)","7008814750000000000♠81,475 (201,330)",2016,20.00583267211914,75.6177749633789,Cuba,/wiki/Archaeological_Landscape_of_the_First_Coffee_Plantations_in_the_South-East_of_Cuba,https://en.wikipedia.org/wiki/Archaeological_Landscape_of_the_First_Coffee_Plantations_in_the_South-East_of_Cuba
Brimstone Hill Fortress National Park,"Saint Kitts and NevisSaint Kitts, Saint Kitts and Nevis17°20′49″N 62°50′14″W﻿ / ﻿17.34694°N 62.83722°W﻿ / 17.34694; -62.83722﻿ (Brimstone Hill Fortress National Park)","Cultural:(iii), (iv)",—,2016,17.34694480895996,62.837223052978516,NA,/wiki/Brimstone_Hill_Fortress_National_Park,https://en.wikipedia.org/wiki/Brimstone_Hill_Fortress_National_Park
Colonial City of Santo Domingo,"Dominican RepublicDistrito Nacional, Dominican Republic18°29′0″N 69°55′0″W﻿ / ﻿18.48333°N 69.91667°W﻿ / 18.48333; -69.91667﻿ (Colonial City of Santo Domingo)","Cultural:(ii), (iv), (vi)",7005930000000000000♠93 (230),2016,18.483333587646484,69.91666412353516,Dominican Repu,/wiki/Ciudad_Colonial_(Santo_Domingo),https://en.wikipedia.org/wiki/Ciudad_Colonial_(Santo_Domingo)
"Historic Area of Willemstad, Inner City and Harbour, Curaçao","NetherlandsWillemstad, Curaçao, Netherlands12°6′7″N 68°54′8″W﻿ / ﻿12.10194°N 68.90222°W﻿ / 12.10194; -68.90222﻿ (Historic Area of Willemstad, Inner City and Harbour, Curaçao)","Cultural:(ii), (iv), (v)",7005860000000000000♠86 (210); buffer zone 87 (210),2016,12.101943969726562,68.9022216796875,Netherlands,NA,https://en.wikipedia.orgNA
Historic Bridgetown and its Garrison,BarbadosBridgetown Barbados13°5′48″N 59°36′50″W﻿ / ﻿13.09667°N 59.61389°W﻿ / 13.09667; -59.61389﻿ (Historic Bridgetown and its Garrison),"Cultural:(ii), (iii), (iv)",7006187000000000000♠187 (460); buffer zone 321 (790),2016,13.09666633605957,59.613887786865234,NA,NA,https://en.wikipedia.orgNA
Historic Centre of Camagüey,"CubaCamagüey, Cuba21°22′43″N 77°55′7″W﻿ / ﻿21.37861°N 77.91861°W﻿ / 21.37861; -77.91861﻿ (Historic Centre of Camagüey)","Cultural:(iv), (v)",7005540000000000000♠54 (130); buffer zone 276 (680),2016,21.378610610961914,77.918609619140625,Cuba,NA,https://en.wikipedia.orgNA
"Historic Town of St George and Related Fortifications, Bermuda","BermudaSt. George Bermuda,  United Kingdom32°22′46″N 64°40′40″W﻿ / ﻿32.37944°N 64.67778°W﻿ / 32.37944; -64.67778﻿ (Historic Town of St George and Related Fortifications, Bermuda)",Cultural:(iv),7006258000000000000♠258 (640),2016,0.6994444727897644,64.67778015136719,United Kingdom,NA,https://en.wikipedia.orgNA
La Fortaleza and San Juan National Historic Site in Puerto Rico,"Puerto RicoSan Juan Puerto Rico,  United States18°28′0″N 66°7′30″W﻿ / ﻿18.46667°N 66.12500°W﻿ / 18.46667; -66.12500﻿ (Old San Juan)",Cultural:(vi),7005330000000000000♠33 (82),2016,18.46666717529297,66.125,Puerto Rico,/wiki/Old_San_Juan,https://en.wikipedia.org/wiki/Old_San_Juan
"National History Park – Citadel, Sans Souci, Ramiers","HaitiNord, Haiti19°34′25″N 72°14′39″W﻿ / ﻿19.57361°N 72.24417°W﻿ / 19.57361; -72.24417﻿ (National History Park – Citadel, Sans Souci, Ramiers)","Cultural:(iv), (vi)",—,2016,19.573610305786133,72.2441635131836,Haiti,NA,https://en.wikipedia.orgNA
Old Havana and its Fortifications,"CubaLa Habana, Cuba23°8′0″N 82°21′0″W﻿ / ﻿23.13333°N 82.35000°W﻿ / 23.13333; -82.35000﻿ (Old Havana and its Fortifications)","Cultural:(iv), (v)",7006143000000000000♠143 (350),2016,23.133333206176758,82.3499984741211,Cuba,/wiki/Old_Havana,https://en.wikipedia.org/wiki/Old_Havana
"San Pedro de la Roca Castle, Santiago de Cuba","CubaSantiago de Cuba Province, Cuba19°58′0″N 75°52′15″W﻿ / ﻿19.96667°N 75.87083°W﻿ / 19.96667; -75.87083﻿ (San Pedro de la Roca Castle, Santiago de Cuba)","Cultural:(iv), (v)",—,2016,19.96666717529297,75.87083435058594,Cuba,NA,https://en.wikipedia.orgNA
Trinidad and the Valley de los Ingenios,"CubaSancti Spíritus Province, Cuba21°48′11″N 79°59′4″W﻿ / ﻿21.80306°N 79.98444°W﻿ / 21.80306; -79.98444﻿ (Trinidad and the Valley de los Ingenios)","Cultural:(iv), (v)",—,2016,21.803054809570312,79.98444366455078,Cuba,NA,https://en.wikipedia.orgNA
Urban Historic Centre of Cienfuegos,"CubaCienfuegos, Cuba22°8′50″N 80°27′10″W﻿ / ﻿22.14722°N 80.45278°W﻿ / 22.14722; -80.45278﻿ (Urban Historic Centre of Cienfuegos)","Cultural:(ii), (v)",—,2016,22.1472225189209,80.45277404785156,Cuba,NA,https://en.wikipedia.orgNA
Viñales Valley,"CubaPinar del Río Province, Cuba22°37′N 83°43′W﻿ / ﻿22.617°N 83.717°W﻿ / 22.617; -83.717﻿ (Viñales Valley)",Cultural:(iv),—,2016,22.616666793823242,83.71666717529297,Cuba,/wiki/Vi%C3%B1ales_Valley,https://en.wikipedia.org/wiki/Vi%C3%B1ales_Valley
Brasília,"BrazilFederal District, Brazil15°47′S 47°54′W﻿ / ﻿15.783°S 47.900°W﻿ / -15.783; -47.900﻿ (Brasília)","Cultural:(i), (iv)",—,1987,15.783333778381348,47.900001525878906,Brazil,/wiki/Bras%C3%ADlia,https://en.wikipedia.org/wiki/Bras%C3%ADlia
Chan Chan Archaeological Zone†,"PeruLa Libertad, Peru8°6′S 79°5′W﻿ / ﻿8.100°S 79.083°W﻿ / -8.100; -79.083﻿ (Chan Chan Archaeological Zone))","Cultural:(i), (iii)","7006600000000000000♠600 (1,500)",1987,8.100000381469727,79.08333587646484,Peru,NA,https://en.wikipedia.orgNA
Chavín (Archaeological Site),"PeruHuari Province, Ancash, Peru9°35′34″S 77°10′42″W﻿ / ﻿9.59278°S 77.17833°W﻿ / -9.59278; -77.17833﻿ (Chavin (Archaeological Site))",Cultural:(iii),—,1987,9.592778205871582,77.17833709716797,Peru,NA,https://en.wikipedia.orgNA
Churches of Chiloé,"ChileChiloé Province, Los Lagos Region, Chile42°30′0″S 73°46′0″W﻿ / ﻿42.50000°S 73.76667°W﻿ / -42.50000; -73.76667﻿ (Churches of Chiloé)","Cultural:(ii), (iii)",—,1987,42.5,73.76667022705078,Chile,/wiki/Churches_of_Chilo%C3%A9,https://en.wikipedia.org/wiki/Churches_of_Chilo%C3%A9
City of Cuzco,"PeruCuzco, Peru13°31′20″S 71°59′0″W﻿ / ﻿13.52222°S 71.98333°W﻿ / -13.52222; -71.98333﻿ (City of Cuzco)","Cultural:(iii), (iv)",—,1987,13.522222518920898,71.98332977294922,Peru,/wiki/Cusco,https://en.wikipedia.org/wiki/Cusco
City of Potosí,"BoliviaPotosí, Potosí Department, Bolivia19°35′1″S 65°45′11″W﻿ / ﻿19.58361°S 65.75306°W﻿ / -19.58361; -65.75306﻿ (City of Potosí)","Cultural:(ii), (iv), (vi)",7006130000000000000♠130 (320),1987,19.58361053466797,65.7530517578125,Bolivia,NA,https://en.wikipedia.orgNA
City of Quito,"EcuadorQuito, Quito Canton, Pichincha Province, Ecuador0°0′14″N 78°30′0″W﻿ / ﻿0.00389°N 78.50000°W﻿ / 0.00389; -78.50000﻿ (City of Quito)","Cultural:(ii), (iv)",7006320000000000000♠320 (790),1987,0.003888888983055949,78.5,Ecuador,NA,https://en.wikipedia.orgNA
Ciudad Universitaria de Caracas,"VenezuelaMunicipality of Libertador, Caracas, Venezuela10°29′27″N 66°53′26″W﻿ / ﻿10.49083°N 66.89056°W﻿ / 10.49083; -66.89056﻿ (Ciudad Universitaria de Caracas)","Cultural:(i), (iv)",—,1987,10.490833282470703,66.89055633544922,Venezuela,/wiki/Ciudad_Universitaria_de_Caracas,https://en.wikipedia.org/wiki/Ciudad_Universitaria_de_Caracas
Coffee Cultural Landscape of Colombia,"ColombiaCaldas, Quindío and Risaralda Departments, Colombia5°28′N 75°41′W﻿ / ﻿5.467°N 75.683°W﻿ / 5.467; -75.683﻿ (Coffee Cultural Landscape of Colombia)","Cultural:(v), (vi)","7009141120000000000♠141,120 (348,700); buffer zone 207,000 (510,000)",1987,5.4666666984558105,75.68333435058594,Colombia,/wiki/Colombian_Coffee-Growers_Axis,https://en.wikipedia.org/wiki/Colombian_Coffee-Growers_Axis
Coro and its Port,"VenezuelaFalcón, Venezuela11°24′N 69°41′W﻿ / ﻿11.400°N 69.683°W﻿ / 11.400; -69.683﻿ (Coro and its Port)","Cultural:(iv), (v)",7006107000000000000♠107 (260); buffer zone 107 (260),1987,11.399999618530273,69.68333435058594,Venezuela,/wiki/Coro_and_its_Port,https://en.wikipedia.org/wiki/Coro_and_its_Port
"Cueva de las Manos, Río Pinturas","ArgentinaSanta Cruz Province, Argentina47°9′0″S 70°40′0″W﻿ / ﻿47.15000°S 70.66667°W﻿ / -47.15000; -70.66667﻿ (Cueva de las Manos, Río Pinturas)",Cultural:(iii),—,1987,47.150001525878906,70.66666412353516,Argentina,NA,https://en.wikipedia.orgNA
Fray Bentos Cultural-Industrial Landscape,"UruguayRío Negro Department, Uruguay33°07′04″S 58°19′54″W﻿ / ﻿33.117778°S 58.331667°W﻿ / -33.117778; -58.331667﻿ (Fray Bentos Cultural-Industrial Landscape)","Cultural:(ii), (iv)","7006274000000000000♠274 (680); buffer zone 2,128 (5,260)",1987,33.11777877807617,58.3316650390625,Uruguay,/wiki/Fray_Bentos_Cultural-Industrial_Landscape,https://en.wikipedia.org/wiki/Fray_Bentos_Cultural-Industrial_Landscape
Fuerte de Samaipata,"BoliviaFlorida Province, Santa Cruz Department, Bolivia18°10′S 63°49′W﻿ / ﻿18.167°S 63.817°W﻿ / -18.167; -63.817﻿ (Fuerte de Samaipata)","Cultural:(ii), (iii)",—,1987,18.16666603088379,63.81666564941406,Bolivia,/wiki/Fuerte_de_Samaipata,https://en.wikipedia.org/wiki/Fuerte_de_Samaipata
Historical Centre of the City of Arequipa,"PeruArequipa, Peru16°24′0″S 71°32′0″W﻿ / ﻿16.40000°S 71.53333°W﻿ / -16.40000; -71.53333﻿ (Historical Centre of the City of Arequipa))","Cultural:(i), (iv)",7006167000000000000♠167 (410); buffer zone 165 (410),1987,16.399999618530273,71.53333282470703,Peru,/wiki/Historic_Centre_of_Arequipa,https://en.wikipedia.org/wiki/Historic_Centre_of_Arequipa
Historic Centre of Salvador de Bahia,"BrazilBahia state, Brazil12°58′0″S 38°30′0″W﻿ / ﻿12.96667°S 38.50000°W﻿ / -12.96667; -38.50000﻿ (Historic Centre of Salvador de Bahia)","Cultural:(iv), (vi)",—,1987,12.966666221618652,38.5,Brazil,NA,https://en.wikipedia.orgNA
Historic Centre of Santa Ana de los Ríos de Cuenca,"EcuadorAzuay Province, Ecuador2°53′0″S 78°59′0″W﻿ / ﻿2.88333°S 78.98333°W﻿ / -2.88333; -78.98333﻿ (Historic Centre of Santa Ana de los Ríos de Cuenca)","Cultural:(ii), (iv), (v)",7006200000000000000♠200 (490),1987,2.883333444595337,78.98332977294922,Ecuador,NA,https://en.wikipedia.orgNA
Historic Centre of Lima,"PeruLima Province, Peru12°3′5″S 77°2′35″W﻿ / ﻿12.05139°S 77.04306°W﻿ / -12.05139; -77.04306﻿ (Historic Centre of Lima)",Cultural:(iv),7006200000000000000♠200 (490),1987,12.05138874053955,77.04305267333984,Peru,/wiki/Historic_Centre_of_Lima,https://en.wikipedia.org/wiki/Historic_Centre_of_Lima
Historic Centre of Santa Cruz de Mompox,"ColombiaBolívar Department, Colombia9°14′0″N 74°26′0″W﻿ / ﻿9.23333°N 74.43333°W﻿ / 9.23333; -74.43333﻿ (Historic Centre of Santa Cruz de Mompox)","Cultural:(iv), (v)","7006458000000000000♠458 (1,130); buffer zone 632 (1,560)",1987,9.233333587646484,74.43333435058594,Colombia,NA,https://en.wikipedia.orgNA
Historic Centre of São Luís,"BrazilMaranhão state, Brazil2°30′51″S 44°18′9″W﻿ / ﻿2.51417°S 44.30250°W﻿ / -2.51417; -44.30250﻿ (Historic Centre of São Luís)","Cultural:(iii), (iv), (v)",—,1987,2.5141665935516357,44.3025016784668,Brazil,NA,https://en.wikipedia.orgNA
Historic Centre of the Town of Diamantina,"BrazilMinas Gerais, Brazil18°40′0″S 43°36′0″W﻿ / ﻿18.66667°S 43.60000°W﻿ / -18.66667; -43.60000﻿ (Historic Centre of the Town of Diamantina)","Cultural:(ii), (iv)",7005290000000000000♠29 (72),1987,18.66666603088379,43.599998474121094,Brazil,NA,https://en.wikipedia.orgNA
Historic Centre of the Town of Goiás,"BrazilGoiás, Brazil15°56′0″S 50°8′0″W﻿ / ﻿15.93333°S 50.13333°W﻿ / -15.93333; -50.13333﻿ (Historic Centre of the Town of Goiás)","Cultural:(ii), (iv)",7005400000000000000♠40 (99); buffer zone 44 (110),1987,15.933333396911621,50.13333511352539,Brazil,NA,https://en.wikipedia.orgNA
Historic Centre of the Town of Olinda,"BrazilPernambuco, Brazil8°0′48″S 34°50′42″W﻿ / ﻿8.01333°S 34.84500°W﻿ / -8.01333; -34.84500﻿ (Historic Centre of the Town of Olinda)","Cultural:(ii), (iv)","7006120000000000000♠120 (300); buffer zone 920 (2,300)",1987,8.013333320617676,34.845001220703125,Brazil,NA,https://en.wikipedia.orgNA
Historic City of Sucre,"BoliviaOropeza Province, Chuquisaca Department, Bolivia19°2′35″S 65°15′33″W﻿ / ﻿19.04306°S 65.25917°W﻿ / -19.04306; -65.25917﻿ (Historic City of Sucre)",Cultural:(iv),7006114000000000000♠114 (280),1987,19.04305648803711,65.25916290283203,Bolivia,NA,https://en.wikipedia.orgNA
Historic Inner City of Paramaribo,"SurinameParamaribo District, Suriname5°49′34″N 55°9′0″W﻿ / ﻿5.82611°N 55.15000°W﻿ / 5.82611; -55.15000﻿ (Historic Inner City of Paramaribo)","Cultural:(ii), (iv)",7005300000000000000♠30 (74); buffer zone 60 (150),1987,5.826111316680908,55.150001525878906,Suriname,NA,https://en.wikipedia.orgNA
Historic Quarter of the City of Colonia del Sacramento,"UruguayColonia Department, Uruguay34°28′4″S 57°51′12″W﻿ / ﻿34.46778°S 57.85333°W﻿ / -34.46778; -57.85333﻿ (Historic Quarter of the City of Colonia del Sacramento)",Cultural:(iv),7005160000000000000♠16 (40),1987,34.467777252197266,57.85333251953125,Uruguay,NA,https://en.wikipedia.orgNA
Historic Quarter of the Seaport City of Valparaíso,"ChileValparaíso Province, Chile33°2′26″S 71°37′41″W﻿ / ﻿33.04056°S 71.62806°W﻿ / -33.04056; -71.62806﻿ (Historic Quarter of the Seaport City of Valparaíso)",Cultural:(iii),7005230000000000000♠23 (57); buffer zone 45 (110),1987,33.04055404663086,71.6280517578125,Chile,NA,https://en.wikipedia.orgNA
Historic Town of Ouro Preto,"BrazilMinas Gerais, Brazil20°23′20″S 43°30′20″W﻿ / ﻿20.38889°S 43.50556°W﻿ / -20.38889; -43.50556﻿ (Historic Town of Ouro Preto)","Cultural:(i), (iii)",—,1987,20.38888931274414,43.50555419921875,Brazil,NA,https://en.wikipedia.orgNA
Humberstone and Santa Laura Saltpeter Works†,"ChileTarapacá, Chile20°12′30″S 69°47′40″W﻿ / ﻿20.20833°S 69.79444°W﻿ / -20.20833; -69.79444﻿ (Humberstone and Santa Laura Saltpeter Works)","Cultural:(ii), (iii), (iv)",—,1987,20.20833396911621,69.79444122314453,Chile,NA,https://en.wikipedia.orgNA
Jesuit Block and Estancias of Córdoba,ArgentinaCórdoba Argentina31°25′14″S 64°11′28″W﻿ / ﻿31.42056°S 64.19111°W﻿ / -31.42056; -64.19111﻿ (Jesuit Block and Estancias of Córdoba),"Cultural:(ii), (iv)",—,1987,31.420555114746094,64.19110870361328,Argentina,/wiki/Jesuit_Block_and_Estancias_of_C%C3%B3rdoba,https://en.wikipedia.org/wiki/Jesuit_Block_and_Estancias_of_C%C3%B3rdoba
Jesuit Missions of La Santísima Trinidad de Paraná and Jesús de Tavarangue,Paraguay Paraguay27°8′S 55°42′W﻿ / ﻿27.133°S 55.700°W﻿ / -27.133; -55.700﻿ (Jesuit Missions of La Santísima Trinidad de Paraná and Jesús de Tavarangue),Cultural:(iv),—,1987,27.133333206176758,55.70000076293945,Paraguay,NA,https://en.wikipedia.orgNA
Jesuit Missions of Chiquitos,"BoliviaSanta Cruz Department, Bolivia16°0′S 60°30′W﻿ / ﻿16.000°S 60.500°W﻿ / -16.000; -60.500﻿ (Jesuit Missions of Chiquitos)","Cultural:(iv), (v)",—,1987,16,60.5,Bolivia,/wiki/Jesuit_Missions_of_Chiquitos,https://en.wikipedia.org/wiki/Jesuit_Missions_of_Chiquitos
"Jesuit Missions of the Guaranis: San Ignacio Miní, Santa Ana, Nuestra Señora de Loreto and Santa María Mayor (Argentina), Ruins of São Miguel das Missões (Brazil)","ArgentinaMisiones Province,  Argentina* and Rio Grande do Sul,  Brazil*28°32′36″S 54°15′57″W﻿ / ﻿28.54333°S 54.26583°W﻿ / -28.54333; -54.26583﻿ (Jesuit Missions of the Guaranis: San Ignacio Mini, Santa Ana, Nuestra Señora de Loreto and Santa Maria Mayor (Argentina), Ruins of Sao Miguel das Missoes (Brazil))",Cultural:(iv),—,1987,28.543333053588867,54.26583480834961,Argentina,NA,https://en.wikipedia.orgNA
Lines and Geoglyphs of Nazca and Pampas de Jumana,"PeruNazca, Peru14°43′33″S 75°8′55″W﻿ / ﻿14.72583°S 75.14861°W﻿ / -14.72583; -75.14861﻿ (Lines and Geoglyphs of Nazca and Pampas de Jumana))","Cultural:(i), (iii), (iv)",—,1987,14.72583293914795,75.14861297607422,Peru,/wiki/Nazca_Lines,https://en.wikipedia.org/wiki/Nazca_Lines
National Archeological Park of Tierradentro,"ColombiaInza, Cauca Department, Colombia2°35′0″N 76°2′0″W﻿ / ﻿2.58333°N 76.03333°W﻿ / 2.58333; -76.03333﻿ (National Archeological Park of Tierradentro)",Cultural:(iii),—,1987,2.5833332538604736,76.03333282470703,Colombia,NA,https://en.wikipedia.orgNA
Pampulha Modern Ensemble,"BrazilBelo Horizonte, Brazil19°51′7″S 43°58′25″W﻿ / ﻿19.85194°S 43.97361°W﻿ / -19.85194; -43.97361﻿ (Pampulha Modern Ensemble)","Cultural:(i), (ii), (iv)","7006154000000000000♠154 (380); buffer zone 7007141800000000000♠1,418 (3,500)",1987,19.851943969726562,43.973609924316406,Brazil,/wiki/Pampulha_Modern_Ensemble,https://en.wikipedia.org/wiki/Pampulha_Modern_Ensemble
"Port, Fortresses and Group of Monuments, Cartagena","ColombiaBolívar Department, Colombia10°25′0″N 75°32′0″W﻿ / ﻿10.41667°N 75.53333°W﻿ / 10.41667; -75.53333﻿ (Port, Fortresses and Group of Monuments, Cartagena)","Cultural:(iv), (vi)",—,1987,10.416666984558105,75.53333282470703,Colombia,NA,https://en.wikipedia.orgNA
Quebrada de Humahuaca,ArgentinaJujuy Province Argentina23°12′0″S 65°20′56″W﻿ / ﻿23.20000°S 65.34889°W﻿ / -23.20000; -65.34889﻿ (Quebrada de Humahuaca),"Cultural:(ii), (iv), (v)","7009172116000000000♠172,116 (425,310); buffer zone 369,649 (913,420)",1987,23.200000762939453,65.34889221191406,Argentina,/wiki/Quebrada_de_Humahuaca,https://en.wikipedia.org/wiki/Quebrada_de_Humahuaca
"Qhapaq Ñan, Andean Road System",Argentina ArgentinaBolivia BoliviaChile ChileColombia ColombiaEcuador EcuadorPeru Peru,"Cultural:(ii), (iii), (iv), (vi)","7012300000000000000♠300,000,000 (740,000,000)",1987,NaN,NaN,Argentina,NA,https://en.wikipedia.orgNA
Rio de Janeiro: Carioca Landscapes Between the Mountain and the Sea,"BrazilRio de Janeiro, Brazil24°50′S 43°11′W﻿ / ﻿24.833°S 43.183°W﻿ / -24.833; -43.183﻿ (Rio de Janeiro)",Cultural:(vi),"7007724900000000000♠7,249 (17,910); buffer zone 8,621 (21,300)",1987,24.83333396911621,43.18333435058594,Brazil,NA,https://en.wikipedia.orgNA
Sacred City of Caral-Supe,"PeruLima, Peru10°53′30″S 77°31′17″W﻿ / ﻿10.89167°S 77.52139°W﻿ / -10.89167; -77.52139﻿ (Sacred City of Caral-Supe))","Cultural:(ii), (iii), (iv)","7006626000000000000♠626 (1,550); buffer zone 14,620 (36,100)",1987,10.891666412353516,77.5213851928711,Peru,/wiki/Caral,https://en.wikipedia.org/wiki/Caral
San Agustín Archaeological Park,"ColombiaSan Augustin and San José de Isnos, Huila Department, Colombia1°55′0″N 76°14′0″W﻿ / ﻿1.91667°N 76.23333°W﻿ / 1.91667; -76.23333﻿ (San Agustín Archaeological Park)",Cultural:(iii),—,1987,1.9166666269302368,76.23332977294922,Colombia,/wiki/San_Agust%C3%ADn_Archaeological_Park,https://en.wikipedia.org/wiki/San_Agust%C3%ADn_Archaeological_Park
Sanctuary of Bom Jesus do Congonhas,"BrazilCongonhas, Minas Gerais, Brazil20°29′59″S 43°51′28″W﻿ / ﻿20.49972°S 43.85778°W﻿ / -20.49972; -43.85778﻿ (Sanctuary of Bom Jesus do Congonhas)","Cultural:(i), (iv)",—,1987,20.49972152709961,43.8577766418457,Brazil,/wiki/Sanctuary_of_Bom_Jesus_do_Congonhas,https://en.wikipedia.org/wiki/Sanctuary_of_Bom_Jesus_do_Congonhas
São Francisco Square in the Town of São Cristóvão,"BrazilSão Cristóvão, Sergipe, Brazil11°0′58″S 37°12′36″W﻿ / ﻿11.01611°S 37.21000°W﻿ / -11.01611; -37.21000﻿ (São Francisco Square in the Town of São Cristóvão)","Cultural:(ii), (iv)","7004300000000000000♠3.00 (7.4); buffer zone 2,500 (6,200)",1987,11.016111373901367,37.209999084472656,Brazil,NA,https://en.wikipedia.orgNA
Serra da Capivara National Park,"BrazilPiauí, Brazil8°25′0″S 42°20′0″W﻿ / ﻿8.41667°S 42.33333°W﻿ / -8.41667; -42.33333﻿ (Serra da Capivara National Park)",Cultural:(iii),—,1987,8.416666984558105,42.33333206176758,Brazil,/wiki/Serra_da_Capivara_National_Park,https://en.wikipedia.org/wiki/Serra_da_Capivara_National_Park
Sewell Mining Town,"ChileMachalí, Cachapoal Province, O'Higgins Region Chile34°5′4″S 70°22′58″W﻿ / ﻿34.08444°S 70.38278°W﻿ / -34.08444; -70.38278﻿ (Sewell Mining Town)",Cultural:(ii),7005170000000000000♠17 (42); buffer zone 33 (82),1987,34.08444595336914,70.38277435302734,Chile,NA,https://en.wikipedia.orgNA
Tiwanaku: Spiritual and Political Centre of the Tiwanaku Culture,"BoliviaIngavi Province, La Paz Department, Bolivia16°33′30″S 68°40′40″W﻿ / ﻿16.55833°S 68.67778°W﻿ / -16.55833; -68.67778﻿ (Tiwanaku: Spiritual and Political Centre of the Tiwanaku Culture)","Cultural:(iii), (iv)",—,1987,16.558332443237305,68.67778015136719,Bolivia,NA,https://en.wikipedia.orgNA
Valongo Wharf Archaeological Site,"BrazilRio de Janeiro, Brazil22°53′49.6″S 43°11′14.62″W﻿ / ﻿22.897111°S 43.1873944°W﻿ / -22.897111; -43.1873944﻿ (Valongo Wharf Archaeological Site)",Cultural:(vi),7003390000000000000♠0.39 (0.96); buffer zone 7005420000000000000♠42 (100),1987,22.897111892700195,43.18739318847656,Brazil,NA,https://en.wikipedia.orgNA
Historic Centre of Bukhara,"Bukhara Province,  Uzbekistan39°46′29″N 64°25′43″E﻿ / ﻿39.77472°N 64.42861°E﻿ / 39.77472; 64.42861﻿ (Historic Centre of Bukhara)","Cultural:(ii), (iv), (vi)",—,1993,39.774723052978516,64.4286117553711,Uzbekistan,/wiki/Historic_Centre_of_Bukhara,https://en.wikipedia.org/wiki/Historic_Centre_of_Bukhara
Historic Centre of Shakhrisyabz,"Qashqadaryo Province,  Uzbekistan39°3′0″N 66°50′0″E﻿ / ﻿39.05000°N 66.83333°E﻿ / 39.05000; 66.83333﻿ (Historic Centre of Shakhrisyabz)","Cultural:(iii), (iv)",7006240000000000000♠240 (590); buffer zone 82 (200),1993,39.04999923706055,66.83333587646484,Uzbekistan,/wiki/Historic_Centre_of_Shakhrisyabz,https://en.wikipedia.org/wiki/Historic_Centre_of_Shakhrisyabz
Itchan Kala,"Khiva, Xorazm Province,  Uzbekistan41°22′42″N 60°21′50″E﻿ / ﻿41.37833°N 60.36389°E﻿ / 41.37833; 60.36389﻿ (Itchan Kala)","Cultural:(iii), (iv), (v)",7005260000000000000♠26 (64),1993,41.378334045410156,60.363887786865234,Uzbekistan,/wiki/Itchan_Kala,https://en.wikipedia.org/wiki/Itchan_Kala
Kunya-Urgench,"Daşoguz Province,  Turkmenistan42°10′59″N 59°5′6″E﻿ / ﻿42.18306°N 59.08500°E﻿ / 42.18306; 59.08500﻿ (Kunya-Urgench)","Cultural:(ii), (iii)",—,1993,42.18305587768555,59.084999084472656,Turkmenistan,/wiki/Konye-Urgench,https://en.wikipedia.org/wiki/Konye-Urgench
Mausoleum of Khoja Ahmed Yasawi,"Turkestan, South Kazakhstan Province,  Kazakhstan43°17′35″N 68°16′28″E﻿ / ﻿43.29306°N 68.27444°E﻿ / 43.29306; 68.27444﻿ (Mausoleum of Khoja Ahmed Yasawi)","Cultural:(i), (iii), (iv)",7003550000000000000♠0.55 (1.4); buffer zone 88 (220),1993,43.29305648803711,68.274444580078125,Kazakhstan,/wiki/Mausoleum_of_Khoja_Ahmed_Yasawi,https://en.wikipedia.org/wiki/Mausoleum_of_Khoja_Ahmed_Yasawi
Parthian Fortresses of Nisa,"Bagyr settlement, Ruhabat District, Ahal Province,  Turkmenistan37°59′59″N 58°11′55″E﻿ / ﻿37.99972°N 58.19861°E﻿ / 37.99972; 58.19861﻿ (Parthian Fortresses of Nisa)","Cultural:(ii), (iii)",7005780000000000000♠78 (190); buffer zone 400 (990),1993,37.99972152709961,58.198612213134766,Turkmenistan,/wiki/Parthian_Fortresses_of_Nisa,https://en.wikipedia.org/wiki/Parthian_Fortresses_of_Nisa
Petroglyphs within the Archaeological Landscape of Tamgaly,"Almaty Province,  Kazakhstan43°48′12″N 75°32′6″E﻿ / ﻿43.80333°N 75.53500°E﻿ / 43.80333; 75.53500﻿ (Petroglyphs within the Archaeological Landscape of Tamgaly)",Cultural:(iii),"7006900000000000000♠900 (2,200); buffer zone 2,900 (7,200)",1993,43.8033332824707,75.535003662109375,Kazakhstan,/wiki/Petroglyphs_within_the_Archaeological_Landscape_of_Tamgaly,https://en.wikipedia.org/wiki/Petroglyphs_within_the_Archaeological_Landscape_of_Tamgaly
Proto-urban site of Sarazm,"Panjakent,  Tajikistan39°30′28″N 67°27′37″E﻿ / ﻿39.50778°N 67.46028°E﻿ / 39.50778; 67.46028﻿ (Proto-urban site of Sarazm)","Cultural:(ii), (iii)",7005160000000000000♠16 (40); buffer zone 142 (350),1993,39.50777816772461,67.46028137207031,Tajikistan,/wiki/Proto-urban_site_of_Sarazm,https://en.wikipedia.org/wiki/Proto-urban_site_of_Sarazm
Samarkand – Crossroads of Cultures,"Samarqand Province,  Uzbekistan39°40′7″N 67°0′0″E﻿ / ﻿39.66861°N 67.00000°E﻿ / 39.66861; 67.00000﻿ (Samarkand – Crossroads of Cultures)","Cultural:(i), (ii), (iv)","7006965000000000000♠965 (2,380)",1993,39.668609619140625,67,Uzbekistan,/wiki/Samarkand_%E2%80%93_Crossroads_of_Cultures,https://en.wikipedia.org/wiki/Samarkand_%E2%80%93_Crossroads_of_Cultures
Silk Roads: the Routes Network of Chang'an-Tianshan Corridor,"22 sites in  China: Luoyang, Lingbao and Xin'an of Henan Province; Xi'an, Bin County and Chenggu of Shaanxi Province; Tianshui, Yongjing, Dunhuang and Anxi of Gansu Province; Turpan, Jimsar and Kuqa of Xinjiang Uyghur Autonomous Region.8 sites in  Kazakhstan: Almaty Province and Jambyl Province.3 sites in  Kyrgyzstan: Chuy Province",Cultural:(ii)(iii)(iv)(vi),"7008426681600000000♠42,668.16 (105,435.3); buffer zone 7009189963130000000♠189,963.13 (469,409.1)",1993,NaN,NaN,China,NA,https://en.wikipedia.orgNA
State Historical and Cultural Park “Ancient Merv”,"Mary Province,  Turkmenistan37°42′3″N 62°10′39″E﻿ / ﻿37.70083°N 62.17750°E﻿ / 37.70083; 62.17750﻿ (State Historical and Cultural Park “Ancient Merv”)","Cultural:(ii), (iii)","7006353000000000000♠353 (870); buffer zone 883 (2,180)",1993,37.70083236694336,62.1775016784668,Turkmenistan,/wiki/State_Historical_and_Cultural_Park_%E2%80%9CAncient_Merv%E2%80%9D,https://en.wikipedia.org/wiki/State_Historical_and_Cultural_Park_%E2%80%9CAncient_Merv%E2%80%9D
Sulaiman-Too Sacred Mountain,"Osh,  Kyrgyzstan40°31′52″N 72°46′58″E﻿ / ﻿40.53111°N 72.78278°E﻿ / 40.53111; 72.78278﻿ (Sulaiman-Too Sacred Mountain)","Cultural:(iii), (vi)","7006112000000000000♠112 (280); buffer zone 4,788 (11,830)",1993,40.53111267089844,72.78277587890625,Kyrgyzstan,/wiki/Sulaiman-Too_Sacred_Mountain,https://en.wikipedia.org/wiki/Sulaiman-Too_Sacred_Mountain
Aflaj Irrigation Systems of Oman,"Sharqiyah and Batinah Regions,  Oman22°59′56″N 57°32′10″E﻿ / ﻿22.99889°N 57.53611°E﻿ / 22.99889; 57.53611﻿ (Aflaj Irrigation Systems of Oman)",Cultural:(v),"7007145600000000000♠1,456 (3,600); buffer zone 16,404 (40,540)",2006,22.99888801574707,57.536109924316406,Oman,NA,https://en.wikipedia.orgNA
Al-Hasa,"Al-Ahsa Governorate,  Saudi Arabia25°25′46″N 49°37′19″E﻿ / ﻿25.42944°N 49.62194°E﻿ / 25.42944; 49.62194﻿ (Al-Hasa)",Cultural:(iii)(iv)(v),"7007854400000000000♠8,544 (21,110); buffer zone 21,556 (53,270)",2006,25.429445266723633,49.621944427490234,Saudi Arabia,/wiki/Al-Hasa,https://en.wikipedia.org/wiki/Al-Hasa
Al-Hijr Archaeological Site (Madâin Sâlih),"Al Madinah Province,  Saudi Arabia26°47′1″N 37°57′18″E﻿ / ﻿26.78361°N 37.95500°E﻿ / 26.78361; 37.95500﻿ (Al-Hijr Archaeological Site (Madâin Sâlih))",Cultural:(ii)(iii),"7007162100000000000♠1,621 (4,010); buffer zone 1,659 (4,100)",2006,26.783611297607422,37.95500183105469,Saudi Arabia,/wiki/Mada%27in_Saleh,https://en.wikipedia.org/wiki/Mada%27in_Saleh
Al Zubarah Archaeological Site,"Madinat ash Shamal,  Qatar25°58′41″N 51°1′47″E﻿ / ﻿25.97806°N 51.02972°E﻿ / 25.97806; 51.02972﻿ (Al Zubarah Archaeological Site)",Cultural:(iii)(iv)(v),"7006416000000000000♠416 (1,030); buffer zone 7,196 (17,780)",2006,25.978055953979492,51.02972412109375,Qatar,NA,https://en.wikipedia.orgNA
Ancient City of Aleppo,"Aleppo Governorate,  Syria36°14′0″N 37°10′0″E﻿ / ﻿36.23333°N 37.16667°E﻿ / 36.23333; 37.16667﻿ (Ancient City of Aleppo)",Cultural:(iii)(iv),7006350000000000000♠350 (860),2006,36.233333587646484,37.16666793823242,Syria,/wiki/Old_City_of_Aleppo,https://en.wikipedia.org/wiki/Old_City_of_Aleppo
Ancient City of Bosra,"Daraa Governorate,  Syria32°31′5″N 36°28′54″E﻿ / ﻿32.51806°N 36.48167°E﻿ / 32.51806; 36.48167﻿ (Ancient City of Bosra)",Cultural:(i)(iii)(vi),—,2006,32.5180549621582,36.481666564941406,Syria,/wiki/Ancient_City_of_Bosra,https://en.wikipedia.org/wiki/Ancient_City_of_Bosra
Ancient City of Damascus,"Damascus Governorate,  Syria33°30′41″N 36°18′23″E﻿ / ﻿33.51139°N 36.30639°E﻿ / 33.51139; 36.30639﻿ (Ancient City of Damascus)",Cultural:(i)(ii)(iii)(iv)(vi),7005860000000000000♠86 (210),2006,33.511390686035156,36.30638885498047,Syria,/wiki/Ancient_City_of_Damascus,https://en.wikipedia.org/wiki/Ancient_City_of_Damascus
Ancient City of Qalhat,"Ash Sharqiyah South Governorate,  Oman22°42′N 59°22′E﻿ / ﻿22.700°N 59.367°E﻿ / 22.700; 59.367﻿ (Ancient City of Qalhat)",Cultural:(ii)(iii),7005758199999999999♠75.82 (187.4); buffer zone 170.09 (420.3),2006,22.700000762939453,59.36666488647461,Oman,/wiki/Qalhat,https://en.wikipedia.org/wiki/Qalhat
Ancient Villages of Northern Syria,"Aleppo and Idlib Governorates,  Syria36°20′3″N 36°50′39″E﻿ / ﻿36.33417°N 36.84417°E﻿ / 36.33417; 36.84417﻿ (Ancient Villages of Northern Syria)",Cultural:(iii)(iv)(v),"7008122900000000000♠12,290 (30,400)",2006,36.33416748046875,36.84416580200195,Syria,/wiki/Dead_Cities,https://en.wikipedia.org/wiki/Dead_Cities
Anjar,"Beqaa Governorate,  Lebanon33°43′33″N 35°55′47″E﻿ / ﻿33.72583°N 35.92972°E﻿ / 33.72583; 35.92972﻿ (Anjar)",Cultural:(iii)(iv),—,2006,33.725833892822266,35.92972183227539,Lebanon,"/wiki/Anjar,_Lebanon","https://en.wikipedia.org/wiki/Anjar,_Lebanon"
Archaeological Site of Troy,"Çanakkale Province,  Turkey39°57′23″N 26°14′20″E﻿ / ﻿39.95639°N 26.23889°E﻿ / 39.95639; 26.23889﻿ (Archaeological Site of Troy)",Cultural:(ii)(iii)(vi),7006158000000000000♠158 (390),2006,39.956390380859375,26.238889694213867,Turkey,/wiki/Archaeological_Site_of_Troy,https://en.wikipedia.org/wiki/Archaeological_Site_of_Troy
"Archaeological Sites of Bat, Al-Khutm and Al-Ayn","Ad Dhahirah Region,  Oman23°16′11″N 56°44′42″E﻿ / ﻿23.26972°N 56.74500°E﻿ / 23.26972; 56.74500﻿ (Archaeological Sites of Bat, Al-Khutm and Al-Ayn)",Cultural:(iii)(iv),—,2006,23.26972198486328,56.744998931884766,Oman,"/wiki/Archaeological_Sites_of_Bat,_Al-Khutm_and_Al-Ayn","https://en.wikipedia.org/wiki/Archaeological_Sites_of_Bat,_Al-Khutm_and_Al-Ayn"
Armenian Monastic Ensembles of Iran,"West Azerbaijan,  Iran38°58′44″N 45°28′24″E﻿ / ﻿38.97889°N 45.47333°E﻿ / 38.97889; 45.47333﻿ (Armenian Monastic Ensembles of Iran)",Cultural:(ii)(iii)(vi),"7006129000000000000♠129 (320); buffer zone 655 (1,620)",2006,38.97888946533203,45.473331451416016,Azerbaijan,/wiki/Armenian_Monastic_Ensembles_of_Iran,https://en.wikipedia.org/wiki/Armenian_Monastic_Ensembles_of_Iran
Ashur (Qal'at Sherqat),"Salah ad Din Governorate,  Iraq35°27′32″N 43°15′35″E﻿ / ﻿35.45889°N 43.25972°E﻿ / 35.45889; 43.25972﻿ (Ashur (Qal'at Sherqat))",Cultural:(iii)(iv),7005700000000000000♠70 (170); buffer zone 100 (250),2006,35.45888900756836,43.25972366333008,Iraq,NA,https://en.wikipedia.orgNA
At-Turaif District in ad-Dir'iyah,"Riyadh Province,  Saudi Arabia24°44′3″N 46°34′21″E﻿ / ﻿24.73417°N 46.57250°E﻿ / 24.73417; 46.57250﻿ (At-Turaif District in ad-Dir'iyah)",Cultural:(ii)(iii),7005290000000000000♠29 (72),2006,24.734167098999023,46.5724983215332,Saudi Arabia,NA,https://en.wikipedia.orgNA
Baalbek,"Beqaa Governorate,  Lebanon34°0′25″N 36°12′18″E﻿ / ﻿34.00694°N 36.20500°E﻿ / 34.00694; 36.20500﻿ (Baalbek)",Cultural:(i)(iv),—,2006,34.00694274902344,36.20500183105469,Lebanon,/wiki/Baalbek,https://en.wikipedia.org/wiki/Baalbek
Bahá’i Holy Places in Haifa and the Western Galilee,"Haifa and North District,  Israel32°49′46″N 34°58′18″E﻿ / ﻿32.82944°N 34.97167°E﻿ / 32.82944; 34.97167﻿ (Bahá’i Holy Places in Haifa and the Western Galilee)",Cultural:(iii)(vi),7005630000000000000♠63 (160); buffer zone 255 (630),2006,32.829444885253906,34.9716682434082,Israel,NA,https://en.wikipedia.orgNA
Bahla Fort,"Ad Dakhiliyah Region,  Oman22°57′51″N 57°18′4″E﻿ / ﻿22.96417°N 57.30111°E﻿ / 22.96417; 57.30111﻿ (Bahla Fort)",Cultural:(iv),—,2006,22.96416664123535,57.301109313964844,Oman,/wiki/Bahla_Fort,https://en.wikipedia.org/wiki/Bahla_Fort
Bam and its Cultural Landscape,"Kerman,  Iran29°07′00.68″N 58°22′06.51″E﻿ / ﻿29.1168556°N 58.3684750°E﻿ / 29.1168556; 58.3684750﻿ (Bam and its Cultural Landscape)",Cultural:(ii)(iii)(iv)(v),—,2006,29.11685562133789,58.36847686767578,Iran,/wiki/Bam_and_its_Cultural_Landscape,https://en.wikipedia.org/wiki/Bam_and_its_Cultural_Landscape
Baptism Site “Bethany Beyond the Jordan” (Al-Maghtas),"Jordan River,  Jordan31°50′13″N 35°32′50″E﻿ / ﻿31.83694°N 35.54722°E﻿ / 31.83694; 35.54722﻿ (Baptism Site “Bethany Beyond the Jordan” (Al-Maghtas))",Cultural:(iii)(vi),"7006294000000000000♠294 (730); buffer zone 957 (2,360)",2006,31.836944580078125,35.54722213745117,Jordan,/wiki/Al-Maghtas,https://en.wikipedia.org/wiki/Al-Maghtas
"Biblical tells - Megiddo, Hazor, Beer Sheba","Israel32°35′50″N 35°10′56″E﻿ / ﻿32.59722°N 35.18222°E﻿ / 32.59722; 35.18222﻿ (Biblical Tels - Megiddo, Hazor, Beer Sheba)",Cultural:(ii)(iii)(iv)(vi),"7005960000000000000♠96 (240); buffer zone 604 (1,490)",2006,32.59722137451172,35.182220458984375,Israel,NA,https://en.wikipedia.orgNA
Bisotun,"Kermanshah,  Iran34°23′18″N 47°26′12″E﻿ / ﻿34.38833°N 47.43667°E﻿ / 34.38833; 47.43667﻿ (Bisotun)",Cultural:(ii)(iii),7006187000000000000♠187 (460); buffer zone 361 (890),2006,34.38833236694336,47.436668395996094,Iran,/wiki/Behistun_Inscription,https://en.wikipedia.org/wiki/Behistun_Inscription
Bursa and Cumalıkızık: the Birth of the Ottoman Empire,"City of Bursa and village of Cumalıkızık, Bursa Province,  Turkey40°11′5″N 29°3′44″E﻿ / ﻿40.18472°N 29.06222°E﻿ / 40.18472; 29.06222﻿ (City of Bursa)",Cultural:(i)(ii)(iii)(iv)(vi),7006193000000000000♠193 (480),2006,40.184722900390625,29.06222152709961,Turkey,NA,https://en.wikipedia.orgNA
Byblos,"Mount Lebanon Governorate,  Lebanon34°7′9″N 35°38′51″E﻿ / ﻿34.11917°N 35.64750°E﻿ / 34.11917; 35.64750﻿ (Byblos)",Cultural:(iii)(iv)(vi),—,2006,34.11916732788086,35.647499084472656,Lebanon,/wiki/Byblos,https://en.wikipedia.org/wiki/Byblos
Caves of Maresha and Bet-Guvrin in the Judean Lowlands as a Microcosm of the Land of the Caves,"Southern District,  Israel31°36′0″N 34°53′44″E﻿ / ﻿31.60000°N 34.89556°E﻿ / 31.60000; 34.89556﻿ (Caves of Maresha and Bet-Guvrin)",Cultural: (V),7006259000000000000♠259 (640),2006,31.600000381469727,34.89555740356445,Israel,/wiki/Beit_Guvrin_National_Park,https://en.wikipedia.org/wiki/Beit_Guvrin_National_Park
Cathedral and Churches of Echmiatsin and the Archaeological Site of Zvartnots,"Armavir Province,  Armenia40°9′34″N 44°17′43″E﻿ / ﻿40.15944°N 44.29528°E﻿ / 40.15944; 44.29528﻿ (Cathedral and Churches of Echmiatsin and the Archaeological Site of Zvartnots)",Cultural:(ii)(iii),7005740000000000000♠74 (180),2006,40.15944290161133,44.2952766418457,Armenia,NA,https://en.wikipedia.orgNA
Choirokoitia,"Larnaca District,  Cyprus34°47′54″N 33°20′36″E﻿ / ﻿34.79833°N 33.34333°E﻿ / 34.79833; 33.34333﻿ (Choirokoitia)",Cultural:(ii)(iii)(iv),—,2006,34.79833221435547,33.34333419799805,Cyprus,/wiki/Choirokoitia,https://en.wikipedia.org/wiki/Choirokoitia
"Birthplace of Jesus: Church of the Nativity and the Pilgrimage Route, Bethlehem","Bethlehem Governorate,  Palestine
31°42′16″N 35°12′28″E﻿ / ﻿31.70444°N 35.20778°E﻿ / 31.70444; 35.20778﻿ (Church of the Nativity)","Cultural: (iv), (vi)",7004298000000000000♠2.98 (7.4),2006,31.704444885253906,35.20777893066406,Palestine,/wiki/Church_of_the_Nativity,https://en.wikipedia.org/wiki/Church_of_the_Nativity
Erbil Citadel,"Iraqi Kurdistan, Iraq36°11′28″N 44°0′33″E﻿ / ﻿36.19111°N 44.00917°E﻿ / 36.19111; 44.00917﻿ (Erbil Citadel)",Cultural:(iv),7005160000000000000♠16 (40); buffer zone 268 (660),2006,36.19111251831055,44.0091667175293,Iraq,/wiki/Citadel_of_Erbil,https://en.wikipedia.org/wiki/Citadel_of_Erbil
City of Safranbolu,"City and district of Safranbolu, Karabük Province,  Turkey41°15′36″N 32°41′23″E﻿ / ﻿41.26000°N 32.68972°E﻿ / 41.26000; 32.68972﻿ (City of Safranbolu)",Cultural:(ii)(iv)(v),7006193000000000000♠193 (480),2006,41.2599983215332,32.68972396850586,Turkey,/wiki/City_of_Safranbolu,https://en.wikipedia.org/wiki/City_of_Safranbolu
Crac des Chevaliers and Qal’at Salah El-Din,"Homs and Latakia Governorates,  Syria34°46′54″N 36°15′47″E﻿ / ﻿34.78167°N 36.26306°E﻿ / 34.78167; 36.26306﻿ (Crac des Chevaliers and Qal’at Salah El-Din)",Cultural:(ii)(iv),7004900000000000000♠9 (22),2006,34.78166580200195,36.26305389404297,Syria,NA,https://en.wikipedia.orgNA
"Cultural Sites of Al Ain (Hafit, Hili, Bidaa Bint Saud and Oases Areas)","United Arab Emirates24°4′4″N 55°48′23″E﻿ / ﻿24.06778°N 55.80639°E﻿ / 24.06778; 55.80639﻿ (Cultural Sites of Al Ain (Hafit, Hili, Bidaa Bint Saud and Oases Areas))",Cultural:(iii)(iv)(v),"7007494500000000000♠4,945 (12,220); buffer zone 7,605 (18,790)",2006,24.067777633666992,55.80638885498047,United Arab Emirates,NA,https://en.wikipedia.orgNA
Gelati Monastery,"Imereti,  Georgia42°17′41″N 42°46′6″E﻿ / ﻿42.29472°N 42.76833°E﻿ / 42.29472; 42.76833﻿ (Gelati Monastery)",Cultural:(iv),"7004420000000000000♠4.2 (10); buffer zone 7007124600000000000♠1,246 (3,080)",2006,42.29472351074219,42.768333435058594,Georgia,/wiki/Gelati_Monastery,https://en.wikipedia.org/wiki/Gelati_Monastery
Gobustan Rock Art Cultural Landscape,"Garadagh and Absheron districts,  Azerbaijan40°7′30″N 49°22′30″E﻿ / ﻿40.12500°N 49.37500°E﻿ / 40.12500; 49.37500﻿ (Gobustan Rock Art Cultural Landscape)",Cultural:(iii),"7006537000000000000♠537 (1,330); buffer zone 3,096 (7,650)",2006,40.125,49.375,Azerbaijan,/wiki/Gobustan_Rock_Art_Cultural_Landscape,https://en.wikipedia.org/wiki/Gobustan_Rock_Art_Cultural_Landscape
Golestan Palace,"Tehran,  Iran35°40′49″N 51°25′14″E﻿ / ﻿35.68028°N 51.42056°E﻿ / 35.68028; 51.42056﻿ (Golestan Palace)",Cultural:(i)(ii)(iii)(iv),7004530000000000000♠5.3 (13); buffer zone 26 (64),2006,35.68027877807617,51.420555114746094,Iran,/wiki/Golestan_Palace,https://en.wikipedia.org/wiki/Golestan_Palace
Gonbad-e Qabus,"Golestan,  Iran37°15′29″N 55°10′8″E﻿ / ﻿37.25806°N 55.16889°E﻿ / 37.25806; 55.16889﻿ (Gonbad-e Qabus)",Cultural:(i)(ii)(iii)(iv),7004148000000000000♠1.48 (3.7); buffer zone 18 (44),2006,37.258056640625,55.168888092041016,Iran,/wiki/Gonbad-e_Qabus_(tower),https://en.wikipedia.org/wiki/Gonbad-e_Qabus_(tower)
Great Mosque and Hospital of Divriği,"city and district of Divriği, Sivas Province,  Turkey39°22′25″N 38°7′25″E﻿ / ﻿39.37361°N 38.12361°E﻿ / 39.37361; 38.12361﻿ (Great Mosque and Hospital of Divriği)",Cultural:(i)(iv),"7007201600000000000♠2,016 (4,980)",2006,39.37361145019531,38.12361145019531,Turkey,/wiki/Great_Mosque_and_Hospital_of_Divri%C4%9Fi,https://en.wikipedia.org/wiki/Great_Mosque_and_Hospital_of_Divri%C4%9Fi
Göbekli Tepe,"Şanlıurfa Province,  Turkey
37°13′23″N 38°55′21″E﻿ / ﻿37.22306°N 38.92250°E﻿ / 37.22306; 38.92250﻿ (Göbekli Tepe)",Cultural:(i)(ii)(iv),"7006126000000000000♠126 (310); buffer zone 461 (1,140)",2006,37.22305679321289,38.92250061035156,Turkey,/wiki/G%C3%B6bekli_Tepe,https://en.wikipedia.org/wiki/G%C3%B6bekli_Tepe
Hatra,"Ninawa Governorate,  Iraq35°35′17″N 42°43′6″E﻿ / ﻿35.58806°N 42.71833°E﻿ / 35.58806; 42.71833﻿ (Hatra)",Cultural:(ii)(iii)(iv)(vi),7006324000000000000♠324 (800),2006,35.58805465698242,42.71833419799805,Iraq,/wiki/Hatra,https://en.wikipedia.org/wiki/Hatra
Hattusha: the Hittite Capital,"Sungurlu, Çorum Province,  Turkey40°0′50″N 34°37′14″E﻿ / ﻿40.01389°N 34.62056°E﻿ / 40.01389; 34.62056﻿ (Hattusha: the Hittite Capital)",Cultural:(i)(ii)(iii)(iv),7006268000000000000♠268 (660),2006,40.01388931274414,34.62055587768555,Turkey,NA,https://en.wikipedia.orgNA
Hebron/Al-Khalil Old Town,"PalHebron Governorate, Palestine31°31′30″N 35°06′30″E﻿ / ﻿31.52500°N 35.10833°E﻿ / 31.52500; 35.10833",Cultural:PalPal (ii)(iv)(vi),7005206000000000000♠20.6 (51),2006,31.524999618530273,35.108333587646484,Palestine,/wiki/Hebron,https://en.wikipedia.org/wiki/Hebron
"Historic Jeddah, the Gate to Makkah","Jeddah,  Saudi Arabia21°29′2″N 39°11′15″E﻿ / ﻿21.48389°N 39.18750°E﻿ / 21.48389; 39.18750﻿ (Jeddah)",Cultural: (ii)(iv)(vi),7005180000000000000♠18 (44) ; buffer zone 7006114000000000000♠114 (280),2006,21.483888626098633,39.1875,Saudi Arabia,NA,https://en.wikipedia.orgNA
Historical Monuments of Mtskheta,"Mtskheta-Mtianeti,  Georgia41°51′N 44°43′E﻿ / ﻿41.850°N 44.717°E﻿ / 41.850; 44.717﻿ (Historical Monuments of Mtskheta)",Cultural:(iii)(iv),—,2006,41.849998474121094,44.71666717529297,Georgia,/wiki/Historical_Monuments_of_Mtskheta,https://en.wikipedia.org/wiki/Historical_Monuments_of_Mtskheta
Historic Town of Zabid,"Al Hudaydah Governorate,  Yemen14°11′53″N 43°19′48″E﻿ / ﻿14.19806°N 43.33000°E﻿ / 14.19806; 43.33000﻿ (Historic Town of Zabid)",Cultural:(iii),—,2006,14.198055267333984,43.33000183105469,Yemen,/wiki/Zab%C4%ABd,https://en.wikipedia.org/wiki/Zab%C4%ABd
Incense Route – Desert Cities in the Negev,"Negev,  Israel30°32′28″N 35°9′39″E﻿ / ﻿30.54111°N 35.16083°E﻿ / 30.54111; 35.16083﻿ (Incense Route – Desert Cities in the Negev)",Cultural:(iii)(v),—,2006,30.54111099243164,35.160831451416016,Israel,/wiki/Incense_Route_%E2%80%93_Desert_Cities_in_the_Negev,https://en.wikipedia.org/wiki/Incense_Route_%E2%80%93_Desert_Cities_in_the_Negev
Land of Frankincense,"Dhofar Governorate,  Oman18°15′12″N 53°38′51″E﻿ / ﻿18.25333°N 53.64750°E﻿ / 18.25333; 53.64750﻿ (Land of Frankincense)",Cultural:(iii)(iv),"7006850000000000000♠850 (2,100); buffer zone 1,243 (3,070)",2006,18.253334045410156,53.647499084472656,Oman,/wiki/Frankincense_Trail,https://en.wikipedia.org/wiki/Frankincense_Trail
"Palestine: Land of Olives and Vines – Cultural Landscape of Southern Jerusalem, Battir","Bethlehem Governorate,  Palestine
31°43′11″N 35°7′50″E﻿ / ﻿31.71972°N 35.13056°E﻿ / 31.71972; 35.13056﻿ (Land of Olives and Vines)","Cultural: (iv), (v)",,2006,31.719722747802734,35.13055419921875,Palestine,/wiki/Battir,https://en.wikipedia.org/wiki/Battir
Masada,"South District,  Israel31°18′49″N 35°21′10″E﻿ / ﻿31.31361°N 35.35278°E﻿ / 31.31361; 35.35278﻿ (Masada)",Cultural:(iii)(iv)(vi),"7006276000000000000♠276 (680); buffer zone 28,965 (71,570)",2006,31.31361198425293,35.352779388427734,Israel,/wiki/Masada,https://en.wikipedia.org/wiki/Masada
Masjed-e Jāmé of Isfahan,"Isfahan,  Iran32°40′11″N 51°41′7″E﻿ / ﻿32.66972°N 51.68528°E﻿ / 32.66972; 51.68528﻿ (Masjed-e Jāmé of Isfahan)",Cultural:(ii),7004208000000000000♠2.08 (5.1); buffer zone 19 (47),2006,32.66972351074219,51.68527603149414,Iran,/wiki/Jameh_Mosque_of_Isfahan,https://en.wikipedia.org/wiki/Jameh_Mosque_of_Isfahan
"Meidan Emam, Esfahan","Isfahan,  Iran32°39′27″N 51°40′40″E﻿ / ﻿32.65750°N 51.67778°E﻿ / 32.65750; 51.67778﻿ (Meidan Emam, Esfahan)",Cultural:(i)(v)(vi),—,2006,32.657501220703125,51.67777633666992,Iran,"/wiki/Meidan_Emam,_Esfahan","https://en.wikipedia.org/wiki/Meidan_Emam,_Esfahan"
Monasteries of Haghpat and Sanahin,"Haghpat and Sanahin, Lori Province,  Armenia41°5′42″N 44°42′37″E﻿ / ﻿41.09500°N 44.71028°E﻿ / 41.09500; 44.71028﻿ (Monasteries of Haghpat and Sanahin)",Cultural:(ii)(iv),7004265000000000000♠2.65 (6.5); buffer zone 24 (59),2006,41.095001220703125,44.71027755737305,Armenia,NA,https://en.wikipedia.orgNA
Monastery of Geghard and the Upper Azat Valley,"near Goght, Kotayk Province,  Armenia40°9′32″N 44°47′48″E﻿ / ﻿40.15889°N 44.79667°E﻿ / 40.15889; 44.79667﻿ (Monastery of Geghard and the Upper Azat Valley)",Cultural:(ii),7004270000000000000♠2.70 (6.7),2006,40.15888977050781,44.79666519165039,Armenia,/wiki/Monastery_of_Geghard_and_the_Upper_Azat_Valley,https://en.wikipedia.org/wiki/Monastery_of_Geghard_and_the_Upper_Azat_Valley
Nemrut Dağ,"Adiyaman Province,  Turkey38°2′12″N 38°45′49″E﻿ / ﻿38.03667°N 38.76361°E﻿ / 38.03667; 38.76361﻿ (Nemrut Dağ)",Cultural:(i)(iii)(iv),7005110000000000000♠11 (27),2006,38.03666687011719,38.76361083984375,Turkey,/wiki/Nemrut_Da%C4%9F,https://en.wikipedia.org/wiki/Nemrut_Da%C4%9F
Neolithic Site of Çatalhöyük,"Central Anatolia Region,  Turkey37°40′0″N 32°49′41″E﻿ / ﻿37.66667°N 32.82806°E﻿ / 37.66667; 32.82806﻿ (Neolithic Site of Çatalhöyük)",Cultural:(iii)(iv),7005370000000000000♠37 (91); buffer zone 111 (270),2006,37.66666793823242,32.82805633544922,Turkey,NA,https://en.wikipedia.orgNA
Old City of Acre,"Western Galilee,  Israel32°55′42″N 35°5′2″E﻿ / ﻿32.92833°N 35.08389°E﻿ / 32.92833; 35.08389﻿ (Old City of Acre)",Cultural:(ii)(iii)(v),7005630000000000000♠63 (160),2006,32.9283332824707,35.08388900756836,Israel,/wiki/Old_City_of_Acre,https://en.wikipedia.org/wiki/Old_City_of_Acre
Old City of Jerusalem and its Walls,Jerusalem31°46′36.12″N 35°14′3.12″E﻿ / ﻿31.7767000°N 35.2342000°E﻿ / 31.7767000; 35.2342000﻿ (Old City of Jerusalem and its Walls),Cultural:JerOld(ii)(iii)(vi),—,2006,31.77669906616211,35.23419952392578,NA,/wiki/Old_City_(Jerusalem),https://en.wikipedia.org/wiki/Old_City_(Jerusalem)
Pergamon and its Multi-Layered Cultural Landscape,"Bergama, Izmir Province  Turkey39°7′33″N 27°10′48″E﻿ / ﻿39.12583°N 27.18000°E﻿ / 39.12583; 27.18000﻿ (Pergamom)",Cultural: (i)(ii)(iii)(iv)(vi),"7006333000000000000♠333 (820); buffer zone 7006477000000000000♠477 (1,180)",2006,39.125831604003906,27.18000030517578,Turkey,NA,https://en.wikipedia.orgNA
Old City of Sana'a,"Sana'a Governorate,  Yemen15°21′20″N 44°12′29″E﻿ / ﻿15.35556°N 44.20806°E﻿ / 15.35556; 44.20806﻿ (Old City of Sana'a)",Cultural:(iv)(v)(vi),—,2006,15.355555534362793,44.20805740356445,Yemen,NA,https://en.wikipedia.orgNA
Shahr-i Sokhta,"Sistan and Baluchestan Province, Iran30°35′38″N 61°19′40″E﻿ / ﻿30.59389°N 61.32778°E﻿ / 30.59389; 61.32778﻿ (Shahr-i Sokhta)",Cultural:(ii)(iii)(iv),"7007145600000000000♠1,456 (3,600); buffer zone 2,200 (5,400)",2006,30.593889236450195,61.32777786254883,Iran,/wiki/Shahr-i_Sokhta,https://en.wikipedia.org/wiki/Shahr-i_Sokhta
Old Walled City of Shibam,"Hadhramaut Governorate,  Yemen15°55′37″N 48°37′36″E﻿ / ﻿15.92694°N 48.62667°E﻿ / 15.92694; 48.62667﻿ (Old Walled City of Shibam)",Cultural:(iii)(iv)(v),—,2006,15.926944732666016,48.62666702270508,Yemen,/wiki/Shibam,https://en.wikipedia.org/wiki/Shibam
Ouadi Qadisha (the Holy Valley) and the Forest of the Cedars of God (Horsh Arz el-Rab),"North Lebanon Governorate,  Lebanon34°14′36″N 36°2′56″E﻿ / ﻿34.24333°N 36.04889°E﻿ / 34.24333; 36.04889﻿ (Ouadi Qadisha (the Holy Valley) and the Forest of the Cedars of God (Horsh Arz el-Rab))",Cultural:(iii)(iv),—,2006,34.24333190917969,36.04888916015625,Lebanon,NA,https://en.wikipedia.orgNA
Painted Churches in the Troodos Region,"Troodos Mountains, Limassol and Nicosia Districts,  Cyprus34°55′13″N 33°5′45″E﻿ / ﻿34.92028°N 33.09583°E﻿ / 34.92028; 33.09583﻿ (Painted Churches in the Troodos Region)",Cultural:(iii)(vi),—,2006,34.9202766418457,33.09583282470703,Cyprus,/wiki/Painted_Churches_in_the_Troodos_Region,https://en.wikipedia.org/wiki/Painted_Churches_in_the_Troodos_Region
Paphos,"Paphos District,  Cyprus34°45′30″N 32°24′20″E﻿ / ﻿34.75833°N 32.40556°E﻿ / 34.75833; 32.40556﻿ (Paphos)",Cultural:(iii)(vi),—,2006,34.75833511352539,32.405555725097656,Cyprus,/wiki/Paphos,https://en.wikipedia.org/wiki/Paphos
Pasargadae,"Pars,  Iran30°11′38″N 53°10′2″E﻿ / ﻿30.19389°N 53.16722°E﻿ / 30.19389; 53.16722﻿ (Pasargadae)",Cultural:(1)(ii)(iii)(iv),"7006160000000000000♠160 (400); buffer zone 7,127 (17,610)",2006,30.193889617919922,53.16722106933594,Iran,/wiki/Pasargadae,https://en.wikipedia.org/wiki/Pasargadae
"Pearling, Testimony of an Island Economy","Muharraq Governorate,  Bahrain26°14′29″N 50°36′49″E﻿ / ﻿26.24139°N 50.61361°E﻿ / 26.24139; 50.61361﻿ (Pearling, Testimony of an Island Economy)",Cultural:(iii),"7008350870000000000♠35,087 (86,700); buffer zone 95,876 (236,910)",2006,26.24138832092285,50.613609313964844,NA,NA,https://en.wikipedia.orgNA
Persepolis,"Fars,  Iran29°56′4″N 52°52′25″E﻿ / ﻿29.93444°N 52.87361°E﻿ / 29.93444; 52.87361﻿ (Persepolis)",Cultural:(i)(iii)(vi),7005130000000000000♠13 (32),2006,29.934444427490234,52.87361145019531,Iran,/wiki/Persepolis,https://en.wikipedia.org/wiki/Persepolis
Petra,"Ma'an Governorate,  Jordan30°19′50″N 35°26′36″E﻿ / ﻿30.33056°N 35.44333°E﻿ / 30.33056; 35.44333﻿ (Petra)",Cultural:(i)(iii)(iv),—,2006,30.330554962158203,35.44333267211914,Jordan,/wiki/Petra,https://en.wikipedia.org/wiki/Petra
Qal’at al-Bahrain – Ancient Harbour and Capital of Dilmun,"Northern Governorate,  Bahrain26°13′59″N 50°31′20″E﻿ / ﻿26.23306°N 50.52222°E﻿ / 26.23306; 50.52222﻿ (Qal’at al-Bahrain – Ancient Harbour and Capital of Dilmun)",Cultural:(ii)(iii)(iv),"7005320000000000000♠32 (79); buffer zone 1,238 (3,060)",2006,26.233055114746094,50.522220611572266,NA,/wiki/Qal%E2%80%99at_al-Bahrain_%E2%80%93_Ancient_Harbour_and_Capital_of_Dilmun,https://en.wikipedia.org/wiki/Qal%E2%80%99at_al-Bahrain_%E2%80%93_Ancient_Harbour_and_Capital_of_Dilmun
Quseir Amra,"Zarqa Governorate,  Jordan31°48′7″N 36°35′9″E﻿ / ﻿31.80194°N 36.58583°E﻿ / 31.80194; 36.58583﻿ (Qasr Amra)",Cultural:(i)(iii)(iv),—,2006,31.801944732666016,36.58583450317383,Jordan,/wiki/Qasr_Amra,https://en.wikipedia.org/wiki/Qasr_Amra
Samarra Archaeological City,"Salah ad Din Governorate,  Iraq34°20′28″N 43°49′25″E﻿ / ﻿34.34111°N 43.82361°E﻿ / 34.34111; 43.82361﻿ (Ashur (Qal'at Sherqat))",Cultural:(ii)(iii)(iv),"7008150580000000000♠15,058 (37,210); buffer zone 31,414 (77,630)",2006,34.34111022949219,43.823612213134766,Iraq,/wiki/Samarra_Archaeological_City,https://en.wikipedia.org/wiki/Samarra_Archaeological_City
Sassanid Archaeological Landscape of Fars Region,"Fars Province,  Iran
29°46′39″N 51°34′13″E﻿ / ﻿29.77750°N 51.57028°E﻿ / 29.77750; 51.57028﻿ (Sassanid Archaeological Landscape of Fars Region)",Cultural:(ii)(iii)(iv),"7006639000000000000♠639 (1,580); buffer zone 12,715 (31,420)",2006,29.77750015258789,51.57027816772461,Iran,/wiki/Sassanid_Archaeological_Landscape_of_Fars_Region,https://en.wikipedia.org/wiki/Sassanid_Archaeological_Landscape_of_Fars_Region
Sheikh Safi al-din Khānegāh and Shrine Ensemble in Ardabil,"Ardabil, Ardabil Province,  Iran38°14′55″N 48°17′29″E﻿ / ﻿38.24861°N 48.29139°E﻿ / 38.24861; 48.29139﻿ (Sheikh Safi al-din Khānegāh and Shrine Ensemble in Ardabil)",Cultural:(i)(ii)(iv),7004214000000000000♠2.14 (5.3); buffer zone 13 (32),2006,38.24861145019531,48.29138946533203,Iran,NA,https://en.wikipedia.orgNA
Shushtar Historical Hydraulic System,"Khuzestan,  Iran32°1′7″N 48°50′9″E﻿ / ﻿32.01861°N 48.83583°E﻿ / 32.01861; 48.83583﻿ (Shushtar Historical Hydraulic System)",Cultural:(i)(ii)(v),"7006240000000000000♠240 (590); buffer zone 1,572 (3,880)",2006,32.018611907958984,48.83583450317383,Iran,/wiki/Shushtar_Historical_Hydraulic_System,https://en.wikipedia.org/wiki/Shushtar_Historical_Hydraulic_System
